stop_id,stop_code,stop_name,stop_desc,stop_lat,stop_lon
21958,5740,Lisboa Gare Oriente,,38.768061,-9.100975
22017,8302,Agualva,,38.584943,-8.7095
22018,8303,Soares Costa,,38.581275,-8.720405
21886,5080,Aguas Moura Est,,38.577058,-8.743967
22016,8301,Aguas Moura Bombeiros,,38.58422,-8.697147
22019,8304,Aguas Moura Cp,,38.573958,-8.747972
21887,5081,Aguas Moura,,38.583978,-8.691167
22021,8306,Gambia R 1 de Maio,,38.568542,-8.764037
22020,8305,Escumalha,,38.569935,-8.754367
21885,5079,Gambia,,38.5667,-8.773705
21888,5082,Porto Abrigo,,38.581823,-8.680497
22022,8307,Retiro Motoristas,,38.562213,-8.78397
22023,8308,Apeadeiro,,38.561063,-8.786602
22049,8362,Bombas Cepsa,,38.579187,-8.677313
22024,8309,Moveis Formosa,,38.558115,-8.793308
22025,8310,Pontes,,38.555152,-8.802715
22026,8311,Pontes Cafe Central,,38.552357,-8.80789
21884,5078,Sitio Pontes,,38.549368,-8.812175
22027,8312,Pontes Cafe Pina,,38.546115,-8.817777
21883,5077,Cotovia,,38.544202,-8.827367
22028,8313,Sado,,38.54377,-8.830905
22032,8317,Poco Mouro,,38.53762,-8.854873
22029,8314,Hotel Ibis,,38.539242,-8.837667
21882,5076,Alto Guerra,,38.53796,-8.846823
22031,8316,Alto Guerra Rest Campones,,38.538112,-8.84476
22030,8315,Alto Guerra Arm Moinho,,38.538307,-8.842027
22033,8319,C N Electrica,,38.535325,-8.863053
22034,8320,Monte Belo,,38.533943,-8.869168
22035,8321,Quatro Caminhos,,38.5313,-8.87534
22036,8322,Setubal Av D Joao II,,38.530023,-8.876497
22037,8323,Setubal Hospital,,38.52891,-8.882507
22039,8325,Setubal Auto Central Portela,,38.528063,-8.886532
21564,829,Setubal,,38.52573,-8.889543
21896,5106,Vale Cao,,38.549045,-8.64887
21913,5124,Troia,,38.492835,-8.90096
22051,8484,Troia Hotel Troiario,,38.490327,-8.901288
22052,8485,Troia Vilas do Mar,,38.487138,-8.896362
22053,8486,Troia Golf,,38.47898,-8.889208
22054,8487,Troia Antigo Parque Campismo,,38.475192,-8.88656
21912,5123,Instalacoes Militares,,38.46575,-8.873475
22055,8488,Ferry Boat X,,38.463812,-8.867583
22056,8489,Sol Trioa,,38.46082,-8.859797
22070,8505,Casebres Rua Mafurinha,,38.529283,-8.49296
21917,5128,Casebres,,38.527297,-8.49424
22071,8506,Casebres Padaria,,38.525668,-8.494755
21911,5122,Nato,,38.45525,-8.853925
21916,5127,Gargolim Cima,,38.50664,-8.498723
21897,5107,Palma,,38.48016,-8.59639
21934,5180,Ponte Pera,,38.440872,-8.83529
21956,5641,Cruzt Herdade Palma,,38.476317,-8.593903
21953,5356,Barrancao,,38.54096,-8.371015
21915,5126,Fonte Santa,,38.485765,-8.50437
21955,5635,Monte Alamos,,38.512538,-8.392425
22069,8504,Serra do Pinhal,,38.472617,-8.507058
22050,8483,Marco Real,,38.455802,-8.561462
21914,5125,Vale Rabiças - X,,38.466647,-8.508358
21957,5642,Monte Novo Palma,,38.430262,-8.634697
21926,5146,Carrasqueira,,38.40941,-8.750943
22061,8494,Carrasqueira Est Possanco,,38.407787,-8.752122
22062,8495,Carrasqueira Rest Rola,,38.40765,-8.747768
21925,5142,Carrasqueira - X,,38.401842,-8.744055
22060,8493,Possanco Bairro Novo,,38.397668,-8.770747
21924,5141,Murta - X,,38.405872,-8.706877
21932,5169,Possanco,,38.39514,-8.777667
22063,8496,Monte Novo do Sul,,38.404832,-8.681818
22057,8490,Comporta Praia,,38.384408,-8.798358
21910,5121,Comporta,,38.38152,-8.787693
22059,8492,Comporta Rua Palmeiras,,38.380752,-8.783927
22058,8491,Comporta Centro Saude,,38.380372,-8.785863
21898,5108,Alberge,,38.429313,-8.522332
22078,8513,Comporta X Alcacer,,38.377507,-8.786632
21923,5140,Cachopos - X,,38.3942,-8.657667
21920,5132,Vale Roque,,38.471147,-8.371727
21944,5335,Sao Cristovao,,38.491268,-8.307008
22064,8497,Herdade Montalvo,,38.394192,-8.626212
21922,5139,Torrinha - X,,38.396152,-8.615455
22065,8498,Herdade Casas Novas,,38.397173,-8.599407
22066,8499,Herdade da Batalha,,38.395452,-8.579758
21943,5333,Santa Susana,,38.447912,-8.391787
21899,5109,Vale Gra,,38.400527,-8.514813
21909,5120,Torre,,38.350842,-8.778833
22048,8358,Alcacer do Sal Olival Queimado,,38.39494,-8.513988
21941,5331,Pego Altar - X,,38.424387,-8.409175
22011,8262,Monte Carvalhos,,38.41938,-8.416803
22010,8261,Courela do Pego,,38.410015,-8.428928
21942,5332,Pego Altar,,38.420852,-8.393738
22047,8357,Alcacer do Sal Castelo,,38.38454,-8.513067
21939,5329,Santa Catarina Sitimos- X,,38.40275,-8.43531
22009,8260,Monte Olival,,38.399963,-8.442808
21921,5138,Moinho Ordem,,38.370292,-8.548722
22008,8259,Monte Arcebispos,,38.394827,-8.454443
22007,8258,Vale Matanca,,38.390708,-8.463672
22077,8512,Brejos X,,38.329217,-8.760028
21900,5110,Alcacer Sal,,38.375428,-8.51041
22068,8501,Bairro Rio Clerigos,,38.377687,-8.501485
21908,5119,Brejos Carregueira,,38.326365,-8.756033
21935,5194,Bairro Laranjal,,38.375902,-8.49599
21919,5131,Monte Gaxa,,38.38188,-8.472173
21940,5330,Santa Catarina Sitimos,,38.393538,-8.431477
21970,8041,Alcacer Junta Freguesia,,38.371733,-8.506768
21969,8040,Alcacer Bombeiros,,38.370267,-8.505633
21968,8039,Alcacer Tribunal,,38.369773,-8.500628
21858,3375,Bairro Forno Cal - X,,38.366007,-8.511387
21933,5172,Bairro Quintinha,,38.36063,-8.516012
21938,5328,Ponte Foz,,38.367282,-8.490502
21971,8042,Alcacer B Quintinha,,38.35934,-8.513933
21857,3374,Bairro Forno Cal,,38.360497,-8.506485
21931,5151,Lagoa Formosa,,38.307252,-8.771998
21906,5117,Carvalhal (Grandola),,38.30999,-8.747548
21945,5342,Monte Vinha Barrosinha,,38.362453,-8.482468
22074,8509,Alto Pina,,38.309162,-8.751487
22076,8511,Restaurante Mira Ponte,,38.309465,-8.74222
22073,8508,Carvalhal Curral,,38.308457,-8.744478
21927,5147,Carvalhal  X (Grand),,38.307103,-8.739875
22075,8510,Pego Escola Primaria,,38.300162,-8.768763
21937,5276,Pego,,38.296048,-8.76471
21905,5116,Casa Branca Grandola,,38.299948,-8.728272
21901,5112,Casa Cant. Valverde,,38.309953,-8.529565
21907,5118,Pinheiro Cruz,,38.268623,-8.727227
21928,5148,Muda,,38.269595,-8.68811
21959,5923,Foros Albergaria,,38.293535,-8.547892
21902,5113,Albergaria Sado,,38.296208,-8.533778
21972,8043,Castelo Ventoso,,38.288918,-8.536045
21904,5115,Vale Coelheiros,,38.261172,-8.677795
22067,8500,Arez (Alcacer),,38.298197,-8.482975
21839,3330,Brejinho Agua,,38.253345,-8.701277
21946,5343,Alfebre,,38.308705,-8.429205
21918,5129,Vale Guizo,,38.296502,-8.47271
22072,8507,Altinho,,38.250925,-8.693638
21967,8038,Aparoz Corujeira,,38.303772,-8.412343
22079,8514,Pinheirinho,,38.222557,-8.734153
21947,5344,Casa Branca Alcacer,,38.283572,-8.400203
21903,5114,Gobulgao,,38.236645,-8.552353
21751,3219,Brejo Mouro,,38.225382,-8.608055
21966,8037,Aparoz,,38.279245,-8.385105
22083,8518,Aldeia Pico 2,,38.231125,-8.575087
21752,3220,Aldeia Pico,,38.23193,-8.566417
21766,3238,Reguengo Fetal,,38.220333,-8.618455
21964,8035,Ferrarias,,38.215325,-8.641128
21973,8044,Paragem Nova,,38.227678,-8.554985
21965,8036,Herdade Depois Ponte Algale,,38.273898,-8.372027
21759,3228,Aldeia Pico - X,,38.221237,-8.557208
22080,8515,Gale X,,38.191915,-8.730918
21948,5345,Ponte Algale,,38.270447,-8.358002
22081,8516,Aberta Nova X,,38.188498,-8.730508
21974,8045,Bairro Isaias,,38.213807,-8.559483
21727,3180,Alecrim - X,,38.200593,-8.618983
21842,3334,Sao Romao - X,,38.265487,-8.346595
21975,8046,Bairro da Tirana,,38.208618,-8.561138
21712,3164,Ponte Fontainhas,,38.181128,-8.729152
21817,3300,Fontainhas Cima,,38.182213,-8.708617
22082,8517,Figueira Preta,,38.182842,-8.697843
21816,3299,Sobreiras Altas,,38.185183,-8.667892
21963,8034,Quinta D Rodrigo,,38.264648,-8.331072
21962,8033,Herdade Algale,,38.271657,-8.30699
21815,3298,Botelha,,38.187555,-8.646647
21949,5346,Barragem - X,,38.267023,-8.316348
21734,3194,Amoreiras Baixo Escola,,38.198493,-8.564123
22290,8877,Bairro das Amoreiras,,38.198875,-8.561792
21950,5347,Torrao,,38.295378,-8.226982
22092,8527,Pinheiro da Chave,,38.169927,-8.730282
21843,3335,Sao Romao Sado,,38.247877,-8.357518
22289,8876,Brejos das Milharadas,,38.199005,-8.546173
22046,8356,Torrao Rua da Fonte,,38.29453,-8.22111
21951,5348,Monte Lavandeira,,38.298555,-8.20513
22096,8531,Silha Entrada,,38.210875,-8.481487
21735,3195,Silha Pascoal,,38.211105,-8.478693
21861,3378,Caveira,,38.165328,-8.730105
21865,3383,Bairro da Liberdade,,38.190535,-8.564335
21976,8049,Amoreiras Modelo,,38.18951,-8.566998
21728,3182,Aldeia Futuro,,38.191023,-8.554213
22088,8523,Caveirinha,,38.162217,-8.730293
21730,3184,Silha Pascoal - X,,38.205103,-8.48142
21731,3185,Agua Derramada,,38.214437,-8.435843
22097,8532,Agua Derramada Escola,,38.211178,-8.442705
21709,3161,Valinho Estrada,,38.160093,-8.692527
21977,8050,Grandola Bomba Galp,,38.180847,-8.567133
22087,8522,Melides Largo Feira,,38.153257,-8.73168
22085,8520,Grandola Estacao Cp,,38.18046,-8.556573
21778,3257,Sao Romao - 2º.X,,38.22608,-8.371957
22084,8519,Grandola Tribunal,,38.179195,-8.55999
22093,8528,Grandola Bairro Estacao,,38.17996,-8.553892
21978,8051,Grandola Camara,,38.176745,-8.569958
22098,8533,Monte Pereira,,38.211598,-8.417395
21565,830,Grandola,,38.176262,-8.566052
21710,3162,Vale Seiceiro,,38.158517,-8.664295
21708,3160,Melides,,38.14755,-8.729347
22094,8529,Aldeia da Justa,,38.178298,-8.540962
22099,8534,Grandola Escola Preparatoria,,38.173715,-8.561495
22286,8855,Grandola Escola Primaria,,38.17265,-8.566757
21729,3183,Aldeia Matos - X,,38.1785,-8.529593
22086,8521,Alto das Silveiras,,38.156633,-8.646365
21777,3256,Aldeia Mil Brejos,,38.208133,-8.407252
22100,8535,Grandola Escola Secundaria,,38.171472,-8.558553
21711,3163,Barranco Maceira,,38.160825,-8.609255
21780,3259,Vale Figueira - X,,38.141422,-8.736565
22090,8525,Lagoa de Melides X,,38.140228,-8.740545
21707,3159,Moinho Vau,,38.13664,-8.759283
22095,8530,Bairro Novo Cadocos,,38.173323,-8.52629
21824,3307,Tanganhal,,38.16215,-8.568497
22091,8526,Parque Campismo Melides,,38.13102,-8.78168
21706,3158,Lagoa Melides,,38.128247,-8.788453
21776,3255,Aldeia Matos,,38.16767,-8.524585
21952,5349,Limite Distrito,,38.288958,-8.140125
22089,8524,Monte Emidio,,38.130295,-8.721632
21779,3258,Rio Moinhos,,38.21447,-8.328307
21979,8052,Viveiros,,38.149443,-8.584348
21781,3260,Vale Figueira,,38.123038,-8.721715
21980,8053,Caldeirinha,,38.14238,-8.589772
21705,3157,Lagoa S. Andre,,38.113673,-8.794947
21597,1032,Ramalheira,,38.2859,-8.111358
22154,8592,Lagoa Galeirao,,38.112483,-8.788533
22337,9052,Rio Moinhos X (Alcacer),,38.204278,-8.32
22153,8591,Parque Campismo Lagoa,,38.111223,-8.782692
22152,8590,Brescos Saida Lagoa,,38.108495,-8.771678
21704,3156,Brescos,,38.106103,-8.765763
21981,8054,Monte Outeiro Capitao,,38.127382,-8.598558
22155,8593,Brescos Aldeia,,38.100393,-8.769055
21596,1031,Monte Tojais,,38.289522,-8.06468
21703,3155,Lagoa S. Andre - X,,38.102145,-8.747145
21725,3178,Santa Margarida Serra,,38.12231,-8.60334
21732,3186,Caveira - X,,38.139748,-8.497637
21594,1029,Vila Nova Baronia Est,,38.293227,-8.035267
22156,8594,Chaparral,,38.090382,-8.772167
21733,3187,Canal Caveira,,38.135612,-8.489353
21783,3262,Pinhal Novo - X,,38.095237,-8.720377
21595,1030,Vila Nova Baronia,,38.28895,-8.037935
22151,8589,S Francisco X,,38.08965,-8.742118
22157,8595,Parvorice,,38.083747,-8.774077
22150,8588,Ponte Deixa O Resto,,38.082515,-8.739353
21782,3261,Outeiro Vento,,38.08921,-8.682708
21724,3177,Sao Francisco Serra,,38.091675,-8.662017
21717,3169,Galiza,,38.076622,-8.777783
22111,8549,Monte Arrozinho,,38.08161,-8.72222
22112,8550,Saramaga,,38.087235,-8.677083
22113,8551,Fonte Ferrenha,,38.089242,-8.650423
21723,3176,Cruz Joao Mendes,,38.087655,-8.639293
21747,3215,Ademas,,38.076763,-8.718292
21823,3306,Mosqueiroes,,38.100777,-8.554422
22158,8596,St Andre Leziria,,38.066995,-8.781648
21702,3154,Deixa O Resto,,38.07012,-8.747618
22137,8575,St Andre Bairro Petrogal,,38.066177,-8.773718
21753,3221,Bairro Petrogal - X,,38.065442,-8.775318
22110,8548,Valentim,,38.071652,-8.715162
22138,8576,Giz Materiais Construcao,,38.065738,-8.766055
21864,3381,Santo Andre Escola,,38.063272,-8.788975
22149,8587,Forneco,,38.065747,-8.748562
22133,8571,St Andre Torres,,38.060797,-8.78836
21718,3170,Giz,,38.063313,-8.760888
21784,3263,Santo Andre-Bº.Atalaia,,38.058853,-8.793323
22136,8574,St Andre Bairro Serrotes,,38.059437,-8.77866
22134,8572,St Andre Praca Concordia,,38.058503,-8.783733
21748,3216,Parral,,38.065715,-8.710455
22132,8570,Bairro Atalaia Sul,,38.056523,-8.792445
22135,8573,St Andre Bairro Azul,,38.057335,-8.781318
22139,8577,Quinta Horacio,,38.059735,-8.756175
21722,3175,Roncao,,38.07231,-8.649055
22131,8569,Stand Os Putos,,38.053837,-8.78967
21701,3153,Azinhal (Santiago),,38.05566,-8.748515
21719,3171,Santo Andre,,38.053473,-8.751658
22140,8578,Casa Cerimonial,,38.050628,-8.747778
21982,8055,Portela,,38.061663,-8.65763
21791,3271,Santo Andre - X,,38.04921,-8.740565
21960,8009,Alvito Bombeiros,,38.259627,-7.994023
21749,3217,Santa Cruz,,38.050788,-8.707663
21765,3237,Santa Cruz - X,,38.049778,-8.705015
21592,1020,Alvito,,38.256312,-7.990318
22141,8579,Hospital Santiago,,38.041963,-8.731943
21822,3305,Escola Viso,,38.074538,-8.514673
21785,3264,Brejinhos,,38.032543,-8.806478
22349,9060,Melides Villa  Supermercado,,38.08577,-8.43354
21821,3304,Brunheiras (Grandola),,38.075975,-8.472137
21721,3174,Mulinheta,,38.040808,-8.665237
21700,3152,Pomar Grande,,38.033103,-8.7239
21750,3218,Verejeira,,38.034507,-8.698358
21767,3241,Escatelares (Sant.),,38.027603,-8.715027
21983,8056,Vale de Arveolas,,38.032482,-8.671972
22142,8580,Escatelares Cafe,,38.025957,-8.71267
22130,8568,Bebeda,,38.014922,-8.819345
21984,8057,Botinha,,38.029458,-8.67388
21591,1019,Monte Bento Senhora,,38.235603,-7.971683
21820,3303,Azinheira Barros,,38.0718,-8.418878
22193,8633,Cumeadas Retiro Cacadores,,38.020882,-8.682913
21825,3308,Cruz Alcaide,,38.021513,-8.674595
22115,8553,Santiago Cp,,38.01765,-8.70333
21566,831,Santiago Cacem,,38.018578,-8.693115
22114,8552,Santiago Correios,,38.017553,-8.696888
22192,8632,Cumeadas Bairro Paraiso,,38.018518,-8.685705
21590,1018,Vila Ruiva,,38.24611,-7.934632
22116,8554,Pinheiro Carapinha,,38.015617,-8.704963
21985,8058,Cumeadas GNR,,38.016383,-8.687455
22159,8597,Santiago Avenida,,38.0149,-8.692933
22117,8555,Zona Industrial,,38.012553,-8.707975
22160,8598,Santiago Tribunal,,38.012925,-8.693022
22118,8556,Vale Verde 1,,38.00892,-8.714752
21726,3179,Vale Verde,,38.00718,-8.720753
22143,8581,Monte S Joao,,38.018443,-8.624693
22119,8557,Penitenciaria,,38.004592,-8.729488
22161,8599,Santiago Intermache,,38.008348,-8.693112
21684,3135,Sao Bartolomeu Serra,,38.017887,-8.61604
22191,8630,Relvas Verdes X,,38.002107,-8.736472
21683,3129,Poço Obra,,38.001095,-8.740685
22433,1017,Vila Alva,,38.249857,-7.900145
21682,3128,Ortiga,,37.997527,-8.753498
22162,8600,Santiago Bairro Formiga,,38.00313,-8.693807
21803,3285,Petroquimica - X,,37.99,-8.832457
21588,1016,Vila Alva - X,,38.245743,-7.901138
22190,8629,Relvas Verdes,,37.996595,-8.737768
22298,8929,Repsol (Etla),,37.984722,-8.832194
21681,3127,Casa Madeira,,37.986143,-8.780802
21813,3296,Vale Eira,,38.048873,-8.402
22129,8567,Ribeira dos Moinhos,,37.979832,-8.833733
21798,3280,Aldeia Chaos - X,,37.99226,-8.694042
22120,8558,Metalsines,,37.979727,-8.796192
21818,3301,Lousal,,38.036642,-8.428067
21826,3309,Aldeia Chaos,,37.98956,-8.690395
21720,3172,Refinaria - X,,37.975848,-8.808543
22121,8559,Refinaria Viaduto,,37.974252,-8.808047
22122,8560,Barbuda Escola,,37.973625,-8.81629
21685,3136,Abela - X,,38.00471,-8.562248
21680,3126,Barbuda,,37.97274,-8.82133
22109,8547,Lousal Salao Festas,,38.031472,-8.429125
21771,3245,Outeiro Lobo,,38.008315,-8.534382
21786,3265,Cruzt E.N.261-3,,37.969122,-8.832953
22123,8561,En 261 Monte,,37.967115,-8.84456
21686,3137,Abela,,38.000627,-8.558332
22302,8963,Zona Comercial (Intermarche),,37.965847,-8.858117
22128,8566,Cruzt En 261 - 1,,37.967452,-8.831142
21819,3302,Lousal - X,,38.03385,-8.400477
22303,8964,Zona Comercial (Continente),,37.965253,-8.856817
22124,8562,Sines X,,37.964868,-8.855503
21693,3145,Cova Gato,,38.00673,-8.517895
21814,3297,Faleiros,,38.0243,-8.425082
22301,8962,Baixa de São Pedro,,37.961903,-8.85657
22320,8982,Estrada da Costa do Norte,,37.96066,-8.870375
22310,8971,Rua da Reforma Agraria (Esc. Basica Vasco da Gama),,37.959922,-8.872767
22319,8981,Rua da Reforma Agraria (Esc. Basica Vasco da Gama),,37.959902,-8.87276
21811,3294,Sines (Bº.Operario),,37.959802,-8.872808
22125,8563,Sines Baixa S Pedro,,37.960335,-8.858068
22348,3173,Refinaria,,37.96418,-8.798253
22311,8972,Rua da Floresta (Bº Maritimo),,37.959253,-8.875752
22300,8961,Estrada da Afeiteira,,37.959953,-8.853825
21694,3146,Boticos,,38.005653,-8.49732
22308,8969,Rua Ary dos Santos,,37.958733,-8.86932
22321,8983,Rua Ary dos Santos,,37.95871,-8.86948
22312,8973,Rua da Floresta (Rua do Farol),,37.958232,-8.87672
22307,8968,Rua das Percebeiras (Finanças),,37.958115,-8.8679
22322,8984,Rua das Percebeiras (Finanças),,37.958097,-8.867868
22304,8965,Rua Maria Lamas (Cemiterio),,37.958475,-8.857962
22126,8564,Sines Cemiterio,,37.958457,-8.858038
22299,8960,Zil2  Rua Principal,,37.958865,-8.850573
22306,8967,Rua Julio Gomes da Silva (Bombeiros),,37.958103,-8.863002
22330,8993,Zil2  Rua Principal,,37.958787,-8.850558
22309,8970,Rua da Reforma Agraria 1,,37.957398,-8.871602
22318,8980,Rua da Reforma Agraria,,37.957392,-8.871565
21567,832,Sines,,37.957498,-8.862628
22317,8979,Rua Antonio Aleixo,,37.956632,-8.871668
21755,3223,Arealao,,38.00544,-8.486333
22127,8565,Sines Bairro 1 Maio,,37.95691,-8.860823
22305,8966,Rua Maria Lamas,,37.956905,-8.860868
22314,8976,Rua da Floresta,,37.95592,-8.878602
22313,8975,Zil 1,,37.955435,-8.880733
22329,8992,Zil2  Rua D (Tecnopolo),,37.956918,-8.84736
22316,8978,Rua do Parque,,37.955468,-8.873797
22325,8988,Rua Joao Mendes (Escola Basica Nº 2),,37.956237,-8.857483
22324,8987,Estrada Nossa Senhora dos Remedios,,37.955452,-8.86036
22315,8977,Rua do Porto Industrial,,37.954323,-8.874977
22328,8991,Piscina Municipal de Sines Carlos Manafaia,,37.955425,-8.852102
22323,8986,Largo S. Sebastiao,,37.954013,-8.863072
21812,3295,Sines (Qtª.Passarinhos),,37.954467,-8.853862
22326,8989,Rua Professor Jose Manuel Vilhena da Silva,,37.954373,-8.853115
22327,8990,B - Escola Basica Nº 3,,37.953763,-8.851688
21679,3124,Vale Traves,,37.965322,-8.705713
22144,8582,Ermidas GNR,,38.007553,-8.418367
21676,3121,Monte Novo - Sines,,37.945988,-8.825305
21696,3148,Ermidas - X,,38.013017,-8.392715
21856,3373,Bairro Carrusca,,38.008687,-8.408838
22108,8546,Ermidas do Sado,,38.00596,-8.416517
22270,8739,Canhestros Polidesportivo,,38.037947,-8.285703
22107,8545,Bairro Carrusca Rua 33,,38.004027,-8.412122
21695,3147,Ermidas Est,,38.002753,-8.414447
21761,3231,Canhestros,,38.035628,-8.287593
21760,3230,Aldeia Mata (Ferreira),,38.022067,-8.333022
22106,8544,Bairro Carrusca Foros,,38.002345,-8.409897
21762,3232,Aldeia Ruins - X,,38.041693,-8.241838
21697,3149,Ermidas,,38.00021,-8.379953
21790,3270,Sao Torpes - X,,37.930297,-8.808362
21593,1021,Vila Frades,,38.213167,-7.823862
21763,3233,Aldeia Ruins,,38.035863,-8.240813
21850,3366,Sao Torpes,,37.927536,-8.8069
21961,8018,Vila Frades Saida Vidigueira,,38.211695,-7.819127
21687,3138,Viegas Cima,,37.956138,-8.549753
21768,3242,Proença,,37.92392,-8.79759
21764,3234,Olhas,,38.031617,-8.235293
22339,9055,Praia de Sao Torpes,,37.92275,-8.805333
22105,8543,Monte Faial,,37.989608,-8.382933
21560,819,Vidigueira,,38.212567,-7.800885
22045,8340,Vidigueira Terminal,,38.208772,-7.805515
22104,8542,Monte Roxo,,37.982027,-8.38272
21571,837,Ferreira Alentejo,,38.062533,-8.118162
22272,8741,Ferreira GNR,,38.059003,-8.11557
22271,8740,Ferreira Mercado,,38.057402,-8.11937
21678,3123,Vale Seco,,37.919778,-8.696693
22273,8742,Ferreira B 5 Marco,,38.058955,-8.111708
22274,8743,Quinta S Vicente,,38.064737,-8.092652
21675,3120,Margavel,,37.90734,-8.775122
21587,1005,Peroguarda - X,,38.06852,-8.07156
21688,3139,Sao Domingos,,37.929683,-8.539927
22163,8601,Montinho Novo,,37.903548,-8.690472
22275,8744,Parque Farias,,38.064905,-8.033735
21691,3143,Monte Ataboeira,,37.931707,-8.476682
21674,3119,Porto Covo - 1 X,,37.888005,-8.756092
22103,8541,Mimosa,,37.947377,-8.380642
22145,8583,Vale Vinagre,,37.930387,-8.454592
22276,8745,Pedreira,,38.061633,-8.023295
21689,3140,Monte Ruivo,,37.920412,-8.497637
21737,3197,Vale Agua,,37.904542,-8.587473
21736,3196,Monte Novo Barranco,,37.905362,-8.570425
21698,3150,Alvalade - X,,37.94208,-8.381332
21699,3151,Alvalade,,37.938413,-8.390437
21692,3144,Vale Santiago - X,,37.931473,-8.419973
22146,8584,Vale Agua X,,37.90034,-8.581933
22102,8540,Alvalade Associacao Regantes,,37.93793,-8.38717
21677,3122,Tarro,,37.883368,-8.701548
21744,3211,Vale Eguas,,37.891625,-8.634675
22101,8539,Alvalade Escola,,37.935205,-8.394982
21673,3118,Porto Covo - 2 X,,37.870038,-8.742982
22186,8625,Terca Parte,,37.867992,-8.760852
22164,8602,Branquinho,,37.871523,-8.704417
22187,8626,Sonega Montes,,37.866188,-8.730897
21627,3040,Vale Eguas - 2 X,,37.881342,-8.60441
21716,3168,Sonega,,37.866625,-8.720953
21585,970,Beringel,,38.05373,-7.983582
21690,3141,Foros Casas Novas,,37.900685,-8.483562
22165,8603,Vale Manhas,,37.864178,-8.707753
22147,8585,Foros C Novas,,37.897458,-8.484442
21805,3288,Parreira - X,,37.857517,-8.764367
22188,8627,Sonega Sul,,37.860608,-8.716703
22185,8624,Porto Covo Entrada,,37.853877,-8.78407
22166,8604,Monte Jose A Carvalho,,37.859802,-8.70978
21578,898,Porto Covo,,37.851955,-8.790248
21672,3117,Tanganheira,,37.85128,-8.710598
22184,8623,Foros Pouca Farinha,,37.842967,-8.76708
21586,1002,Casa Cant. Beringel,,38.04345,-7.936215
22277,8746,Rotunda Aeroporto,,38.040788,-7.925832
21806,3289,Bica,,37.828485,-8.759825
22148,8586,Foros Locario Entrada,,37.858762,-8.49195
22278,8747,Monte das Palmeiras,,38.038315,-7.909703
21619,3014,Foros Locario,,37.855317,-8.489367
21772,3246,Fonte Cortiço,,37.823488,-8.691092
22279,8748,Merebeja,,38.0366,-7.902832
21626,3033,Foros Caiada,,37.845377,-8.520973
22280,8749,Monte da Solavile,,38.034518,-7.898122
22183,8621,Mar de Estrelas,,37.81161,-8.76538
22167,8605,Burdo,,37.819618,-8.683865
21742,3207,Fornalhas - X,,37.857007,-8.432003
21859,3376,Pouca Farinha - X,,37.813213,-8.681855
22189,8628,Pouca Farinha Centro,,37.812643,-8.686112
22168,8606,Teimosas,,37.811798,-8.681277
21860,3377,Pouca Farinha,,37.809882,-8.68867
21807,3290,Ribeira Azenha - X,,37.801912,-8.771608
21738,3203,Silveiras (Sant.),,37.815638,-8.610535
21743,3208,Fornalhas Velhas,,37.849327,-8.414542
22169,8607,Retiro do Pontao,,37.806002,-8.678648
21741,3206,Fornalhas Novas,,37.837477,-8.44516
21568,833,Cercal Alentejo,,37.800535,-8.672192
22170,8608,Cercal Saida Milfontes,,37.798995,-8.676337
21739,3204,Vale Pedra,,37.814303,-8.557585
22266,8717,Espadanal,,37.799522,-8.659997
22044,8333,Beja Cadeia,,38.01968,-7.870232
22171,8609,Cercal Zona Industrial,,37.79576,-8.689258
21625,3032,Foros Caiada - X,,37.815023,-8.525062
21740,3205,Bicos,,37.817392,-8.509097
22265,8716,Chaparral,,37.792995,-8.668182
22182,8620,Parque Campismo Sitava,,37.780225,-8.783165
22043,8332,Beja Jardim Bacalhau,,38.012783,-7.86602
21758,3226,Bicos - X,,37.813738,-8.498273
22042,8330,Beja Pulo do Lobo,,38.010493,-7.861998
21570,836,Beja,,38.009403,-7.858622
21671,3115,Alpendurada,,37.777042,-8.729002
21668,3110,Fonte Nova,,37.788348,-8.616323
21808,3291,Malhadinha,,37.768658,-8.780872
21713,3165,Catifarras,,37.776107,-8.662725
22181,8619,Monte dos Cedros,,37.764478,-8.777487
21793,3275,Aldeia Cano - X,,37.780645,-8.606048
22172,8610,Samoqueiro,,37.763447,-8.74397
22180,8618,Malhadinha Entrada,,37.759963,-8.771923
21792,3274,Valongo,,37.81002,-8.415122
22264,8715,Limite Distrito Beja,,37.76955,-8.662282
22179,8617,Malhadinha En 1072 Km 1.1,,37.756812,-8.766743
22173,8611,Venda Fria,,37.757432,-8.75041
21667,3109,Campo Redondo,,37.777993,-8.564215
22174,8612,Afeiteira,,37.753652,-8.75441
21714,3166,Brunheiras (Odemira),,37.74891,-8.759428
21795,3277,Ribeira Seissal - X,,37.773275,-8.55124
22267,8718,Ribeira Seissal Baixo,,37.767593,-8.558585
21794,3276,Aldeia Cano,,37.759818,-8.609147
22263,8714,Trajanitos,,37.750482,-8.659332
21809,3292,Galeado - X,,37.739762,-8.765915
22338,9053,Foros Galeado,,37.738917,-8.750028
22175,8613,Alagoachos,,37.737195,-8.768295
21810,3293,Galeado,,37.738327,-8.750682
22176,8614,Milfontes Jodili,,37.732275,-8.773312
21670,3113,Pontao Ferrarias Cima,,37.742875,-8.658545
21796,3278,Ribeira Seissal,,37.755738,-8.560837
22177,8615,Milfontes Bes,,37.729575,-8.776205
21769,3243,Soalheira,,37.760648,-8.515238
22178,8616,Milfontes Taxi,,37.72694,-8.77907
21572,844,Vila Nova Milfontes,,37.72628,-8.781988
21666,3108,Barranco Cai Logo,,37.754625,-8.503263
22268,8719,Caldeira Dobadouras,,37.723662,-8.724853
22262,8713,S Luis Bairro Novo,,37.721908,-8.659082
22261,8712,S Luis Cafe Desportivo,,37.717502,-8.662752
21576,875,Sao Luis,,37.714068,-8.665438
22269,8720,Furnas,,37.700803,-8.771045
21663,3087,Vale Santiago,,37.75042,-8.413887
22260,8711,S Luis Cemiterio,,37.708968,-8.665668
21660,3084,Colos,,37.73372,-8.462318
22239,8690,Colos Escola,,37.73291,-8.465283
21756,3224,Monte Estrada,,37.709173,-8.574593
21662,3086,Santa Luzia (Colos),,37.732165,-8.405708
22194,8643,Santa Luzia Est Nacional,,37.73175,-8.403043
21754,3222,Nascedios,,37.681015,-8.763152
22241,8692,Vale D Agua,,37.700378,-8.570253
21661,3085,Santa Luzia - X,,37.727342,-8.40952
22242,8693,Paco,,37.694,-8.56098
22243,8694,Ribeira do Salto,,37.693947,-8.546268
21657,3080,Colos - X (Ramal Colos),,37.711312,-8.440637
21757,3225,Escola Primaria,,37.694368,-8.538503
21656,3079,Reliquias,,37.699648,-8.486018
21746,3213,Castelao,,37.674222,-8.656215
22240,8691,Barreiros Reliquias,,37.695903,-8.48652
21715,3167,Vale Ferro,,37.683915,-8.551932
22255,8706,Longueira,,37.657715,-8.775583
21862,3379,Cabaços,,37.677083,-8.583418
22244,8695,Venda,,37.690222,-8.497288
21617,3005,Longueira - X,,37.656308,-8.775105
22256,8707,Carrascal,,37.656588,-8.770723
21573,845,Almograve,,37.65388,-8.793898
21637,3058,Almograve - X,,37.654275,-8.759647
22245,8696,Furadouro,,37.681713,-8.51429
21655,3078,Portela Junqueiro,,37.675682,-8.527427
22257,8708,Monte das Pedrinhas,,37.64747,-8.759662
21664,3098,Garvao,,37.708777,-8.342827
21658,3081,Amoreiras Est,,37.68894,-8.414295
21669,3111,Reguengo Pequeno,,37.652148,-8.64532
21654,3077,Montinho (Odemira),,37.666435,-8.536838
21638,3059,Flor Brejo - X,,37.635388,-8.75276
22246,8697,Ameixiais,,37.653587,-8.551407
22238,8689,Monte Pretas,,37.675437,-8.41293
21653,3076,Capelinha,,37.646485,-8.567218
22254,8705,Choca,,37.622628,-8.782713
21849,3362,Choça - X,,37.619805,-8.782243
21770,3244,Ribeira Sol Posto,,37.634258,-8.628563
22258,8709,Fabrica,,37.621153,-8.731582
21665,3105,Aldeia Amoreiras,,37.669405,-8.375182
21579,899,Cavaleiro - X,,37.615053,-8.724223
22332,9047,Praia do Cavaleiro,,37.605333,-8.816528
22253,8704,Monte dos Medos,,37.606287,-8.798748
21652,3075,Fonte Boa,,37.6241,-8.594418
22259,8710,Escalhinho,,37.618723,-8.62546
22237,8688,S Martinho Centro Dia,,37.653758,-8.40312
21659,3083,Sao Martinho Amoreiras,,37.65082,-8.402827
22208,8659,Craveira,,37.6,-8.778465
21639,3060,Cavaleiro,,37.597987,-8.806583
21640,3061,Fataca - X,,37.60146,-8.744417
22209,8660,Carrasqueira,,37.598408,-8.770303
21641,3063,Algoceira,,37.60165,-8.693943
22250,8701,Vale Bispo,,37.596983,-8.69135
22210,8661,Fataca,,37.590238,-8.740923
21644,3067,Telheiro,,37.603313,-8.610863
21569,834,Odemira,,37.598883,-8.644708
21621,3019,Valas,,37.585003,-8.778162
21645,3068,Pomar,,37.605187,-8.579452
22247,8698,Odemira Escolas,,37.59839,-8.631977
22235,8686,Odemira Passagem Estreita,,37.597512,-8.638415
22195,8646,Odemira Chafariz,,37.596287,-8.647578
22196,8647,Bemparece,,37.594477,-8.662943
22333,9048,Sao Pedro,,37.592111,-8.681861
21775,3249,Ermida S.Pedro,,37.591915,-8.682108
21647,3070,Voltinhas,,37.615,-8.502763
22233,8684,Venda Nova,,37.611753,-8.513768
22248,8699,Portas Transval Lidl,,37.591112,-8.669167
22249,8700,Fiais,,37.590587,-8.673393
22207,8658,Pinhal Novo,,37.581152,-8.778552
21643,3066,Bemposta (Odemira),,37.595733,-8.621532
21642,3064,Portas Transval,,37.590605,-8.664555
22211,8662,Campo de Experiencia,,37.582883,-8.73884
22234,8685,Monte Novo,,37.605872,-8.524538
22252,8703,Mal Lavado Velho,,37.580757,-8.715522
21789,3269,Monte Cerro - X,,37.628613,-8.378878
21774,3248,Mal Lavado,,37.578938,-8.722425
22197,8648,Parque Aguas X,,37.58346,-8.666585
22334,9049,Mancosas,,37.580083,-8.700167
22251,8702,Castanhal,,37.58025,-8.6946
21646,3069,Taliscas,,37.596627,-8.547808
21636,3056,Foros Quintas,,37.580232,-8.667688
21618,3006,Boavista Pinheiros,,37.580813,-8.657602
21773,3247,Mal Lavado - X,,37.572527,-8.73717
22206,8657,Touril,,37.561672,-8.777647
22351,9063,Teixeira Duarte  Sines,,37.59068,-8.48536
21648,3071,Luzianes,,37.588405,-8.490595
21788,3268,Barranco Laranjeiras,,37.61174,-8.353772
22350,9062,Air Liquide  Sines,,37.58466,-8.49019
22331,9046,Porto da Barca,,37.550111,-8.791472
21622,3020,Entrada Barca,,37.549703,-8.791207
22236,8687,Rifoias,,37.558413,-8.64816
21799,3281,Casa Branca X (Odem),,37.548507,-8.734048
21863,3380,Corte Brique,,37.579413,-8.447842
21787,3267,Corte Malhao,,37.587645,-8.358173
22232,8683,Consulta,,37.561915,-8.485147
22203,8654,Monte Alpenduradas,,37.52828,-8.76096
21800,3282,Estibeira,,37.531797,-8.717027
22204,8655,Zambujeira Entrada,,37.527143,-8.76779
21563,823,Zambujeira do Mar,,37.525463,-8.783763
22205,8656,Zambujeira Parque Campismo,,37.526112,-8.77403
22202,8653,Monte Branco,,37.524603,-8.754998
21649,3072,Portelinha,,37.554092,-8.487137
21797,3279,Canal,,37.52192,-8.748803
21844,3340,Camachos,,37.530327,-8.634515
21852,3368,Corte Brique - X,,37.554462,-8.451113
22201,8652,Monte Alcaria,,37.515245,-8.733322
22198,8649,Encalhe,,37.515832,-8.710042
21851,3367,Cortes Pereira,,37.55481,-8.402928
21650,3073,Ponte Pedrosa,,37.53961,-8.485262
22220,8671,Sobreirinho,,37.512212,-8.702892
22199,8650,S Teotonio Largo Rato,,37.510195,-8.71662
22200,8651,S Teotonio Escola,,37.510505,-8.705178
21574,847,Sao Teotonio,,37.508797,-8.706892
21827,3314,Quintas,,37.506577,-8.695258
21845,3341,Portela Fonte Santa,,37.520197,-8.571738
22222,8673,Choca,,37.499533,-8.673942
21828,3315,Casa Nova Cruz,,37.499362,-8.653738
22212,8663,Cravinho,,37.490263,-8.72216
22223,8674,Zebro,,37.493693,-8.643493
22216,8667,Brejao Est Azenhas,,37.480623,-8.771457
21802,3284,Brejao,,37.480328,-8.76671
21651,3074,Santa Clara-A-Velha,,37.513292,-8.476828
21846,3342,Bem Casados - X,,37.502765,-8.543582
21635,3053,Vale Juncal,,37.480238,-8.726867
21847,3343,Frieza,,37.503147,-8.511183
22215,8666,Brejao Bairro Novo,,37.475535,-8.760387
22214,8665,Frupor,,37.47323,-8.757542
22213,8664,Castanha,,37.472858,-8.745002
22217,8668,Azenhas Estufas,,37.465352,-8.789543
22231,8682,Saboia Escola,,37.49618,-8.49951
21804,3287,Azenhas Mar,,37.464748,-8.796028
21801,3283,Brejao - X,,37.466895,-8.750585
21837,3325,Saboia Est/S.Clara Velha,,37.495737,-8.481642
21848,3344,Saboia,,37.493057,-8.497798
21829,3316,Joao Ribeiras,,37.475492,-8.625053
21623,3023,Moita - X,,37.47043,-8.663113
22230,8681,Saboia Bairro Bom Sitio,,37.489337,-8.494368
22224,8675,Pomba,,37.471068,-8.608063
21836,3324,Saboia - X,,37.4857,-8.487237
22225,8676,Monte da Vinha,,37.458975,-8.595487
21584,966,Odeceixe,,37.43443,-8.769913
21840,3331,Sao Miguel - X,,37.434465,-8.75778
22219,8670,Odeceixe Ponte,,37.433622,-8.766525
22218,8669,Baiona,,37.433968,-8.760808
21841,3332,Sao Miguel,,37.433217,-8.754043
21624,3024,Relva Grande (Escola),,37.439735,-8.657663
22221,8672,Relva Grande Cafe Portela,,37.439827,-8.645818
21830,3317,Varzea Carvalho,,37.445622,-8.587963
22226,8677,Joao Martins,,37.435233,-8.574172
21831,3318,Carapeto,,37.433803,-8.560848
21834,3321,Corte Sevilha,,37.44349,-8.48747
21833,3320,Vale Touriz,,37.432937,-8.529718
22227,8678,Carapeto Baixo,,37.42324,-8.552848
22228,8679,Carapeto Cima,,37.420985,-8.548108
21832,3319,Moitinhas - X,,37.420615,-8.541398
21853,3369,Pereiras Est,,37.434158,-8.445912
21634,3051,Maria Vinagre,,37.394108,-8.784664
21854,3370,Pereiras  - X,,37.424367,-8.483953
22229,8680,Vale Negro,,37.423463,-8.469837
21855,3371,Moitinhas,,37.411973,-8.53624
21835,3323,Nave Redonda,,37.404188,-8.483935
21633,3050,Rogil,,37.370511,-8.799994
22341,9059,Vale Beijinha,,37.41106,-8.41386
21838,3326,Taipas Meio,,37.388747,-8.45728
22340,9058,Troviscais,,37.3933,-8.405
21583,945,Aljezur,,37.316883,-8.802781
21632,3048,Alfambra,,37.261831,-8.811692
21745,3212,Relvinha,,37.235781,-8.799
21631,3047,Espinhaço Cao,,37.215928,-8.761264
21630,3044,Bensafrim,,37.155308,-8.734603
21629,3043,Vale Bensafrim,,37.154936,-8.722319
21628,3042,Portelas,,37.122242,-8.693933
21620,3017,Lagos - X,,37.112186,-8.681622
21580,911,Lagos,,37.107469,-8.675567