stop_id,stop_code,stop_name,stop_desc,stop_lat,stop_lon
18039,822,Evora,,38.568323,-7.918058
18385,8110,Evora Portas do Raimundo,,38.567695,-7.913255
22434,8008,Evora Hotel Ibis,,38.56655,-7.912835
18381,8098,Evora Hotel D Fernando,,38.565387,-7.908028
18382,8099,Evora Chafariz Del Rei,,38.565268,-7.901847
18383,8100,Evora Antiga Est Reguengos,,38.565007,-7.896787
18384,8101,Evora S Jose da Ponte,,38.561038,-7.892137
18098,1538,Entronc. En 254/18,,38.559155,-7.891128
18401,8355,Herdade da Pereira,,38.519138,-7.888468
18091,1050,Monte Mira,,38.48652,-7.897027
18090,1049,Vale Anciada,,38.444407,-7.928052
18096,1141,Chafariz Louzeiro,,38.521482,-7.800472
18089,1048,Aguiar,,38.393307,-7.966085
18095,1140,Sao Manços - X,,38.495515,-7.755157
18088,1047,Viana Alentejo,,38.335392,-8.005233
18369,8010,Viana Alentejo Est Evora,,38.33619,-8.001238
18370,8011,Viana Alentejo Saida V Nova Baronia,,38.33031,-8.006697
18085,1029,Vila Nova Baronia Est,,38.293227,-8.035267
18049,879,Sao Manços,,38.458973,-7.751653
18086,1030,Vila Nova Baronia,,38.28895,-8.037935
22437,9091,São Manços (Rua Sra da Ajuda),,38.457627,-7.748993
18368,8009,Alvito Bombeiros,,38.259627,-7.994023
18079,1020,Alvito,,38.256312,-7.990318
18070,1011,Albergaria Fusos,,38.281805,-7.935743
18140,3191,Santa Margarida Sado,,38.111435,-8.35665
18361,5354,Odivelas,,38.170732,-8.147287
18050,880,Monte Trigo,,38.396422,-7.71412
18097,1252,Monte Ribeira (Alberg.),,38.262042,-7.92118
18078,1019,Monte Bento Senhora,,38.235603,-7.971683
18077,1018,Vila Ruiva,,38.24611,-7.934632
18141,3192,Malhada Velha - X,,38.10291,-8.274535
18076,1017,Vila Alva,,38.249857,-7.900145
18075,1016,Vila Alva - X,,38.245743,-7.901138
18066,1007,Casal Ventoso,,38.12541,-8.133673
18048,870,Figueira Cavaleiros,,38.093937,-8.206858
18402,8537,Figueira Cavaleiros Cafe Estrela,,38.092515,-8.202255
18092,1051,Santana,,38.268418,-7.79945
18367,8007,Monte Zurria,,38.206585,-7.904387
18403,8538,Monte Marmelos,,38.085615,-8.172892
18046,849,Portel,,38.307915,-7.706902
18068,1009,Alfundao,,38.118223,-8.063612
18451,8739,Canhestros Polidesportivo,,38.037947,-8.285703
18146,3231,Canhestros,,38.035628,-8.287593
18147,3232,Aldeia Ruins - X,,38.041693,-8.241838
18080,1021,Vila Frades,,38.213167,-7.823862
18148,3233,Aldeia Ruins,,38.035863,-8.240813
18376,8018,Vila Frades Saida Vidigueira,,38.211695,-7.819127
18069,1010,Faro Alentejo,,38.148662,-7.942315
18149,3234,Olhas,,38.031617,-8.235293
18375,8017,Cuba Saida Vidigueira,,38.168435,-7.889607
18366,8006,Cuba Epac,,38.164702,-7.895368
18074,1015,Cuba Est,,38.163418,-7.894713
18038,819,Vidigueira,,38.212567,-7.800885
18067,1008,Peroguarda,,38.092652,-8.04847
18400,8340,Vidigueira Terminal,,38.208772,-7.805515
18365,8005,Cuba Bombas Galp,,38.161788,-7.891193
18374,8016,Vidigueira R Laranjeiras,,38.208623,-7.800835
18044,837,Ferreira Alentejo,,38.062533,-8.118162
18373,8015,Vidigueira Ent Selmes,,38.208825,-7.79588
18453,8741,Ferreira GNR,,38.059003,-8.11557
18452,8740,Ferreira Mercado,,38.057402,-8.11937
18454,8742,Ferreira B 5 Marco,,38.058955,-8.111708
18455,8743,Quinta S Vicente,,38.064737,-8.092652
18377,8019,Cruzeiro Alcaria,,38.207867,-7.780862
18065,1005,Peroguarda - X,,38.06852,-8.07156
18171,4012,Fortes,,37.996928,-8.2633
18456,8744,Parque Farias,,38.064905,-8.033735
18073,1014,Monte Barreiros,,38.139757,-7.866092
18240,4084,Trigaches,,38.090017,-7.97132
18093,1076,Monte Sesmarias,,38.156338,-7.829035
18199,4043,Casal Novo/Abegoaria,,38.021267,-8.137597
18082,1026,Alcaria,,38.201788,-7.744143
18457,8745,Pedreira,,38.061633,-8.023295
18507,8798,Barragem,,38.081423,-7.971778
18514,8805,Aldeia do Rouquenho,,37.994945,-8.200975
18513,8804,Gasparoes Saida,,37.9956,-8.197283
18399,8339,Albufeira S Matias,,38.145617,-7.83552
18138,3150,Alvalade - X,,37.94208,-8.381332
18139,3151,Alvalade,,37.938413,-8.390437
18201,4045,Gasparoes,,37.994437,-8.188675
18404,8540,Alvalade Associacao Regantes,,37.93793,-8.38717
18512,8803,Monte Gasparoes,,37.994188,-8.169707
18169,4010,Conqueiros - X,,37.937618,-8.364177
18508,8799,Beringel Jardim,,38.058103,-7.982062
18364,8004,Cruzamento Cuba,,38.11916,-7.84776
18151,3239,Monte Freixo - X,,38.119135,-7.847808
18239,4083,Sao Brissos,,38.072148,-7.945605
18509,8800,Beringel X Estrada Nacional,,38.05416,-7.984537
18062,970,Beringel,,38.05373,-7.983582
18168,4009,Monte Chaveira - X,,37.930788,-8.346008
18072,1013,Sao Matias (Beja),,38.110075,-7.856435
18510,8801,Monte Mombeja,,38.032992,-8.017928
18226,4070,Mombeja,,38.024178,-8.035798
18152,3240,Monte Freixo,,38.133492,-7.796827
18371,8013,Selmes Saida Vidigueira,,38.148187,-7.76027
18372,8014,Selmes Jardim,,38.145053,-7.760187
18363,8003,Monte Aparica,,38.09359,-7.858185
18087,1033,Selmes,,38.144692,-7.758685
18083,1027,Monte Pocinhos,,38.176053,-7.70084
18447,8735,Monte Daroeira,,37.919328,-8.31764
18506,8797,Monte da Figueirinha,,38.04996,-7.927642
18222,4066,Aldeia Nova,,37.949827,-8.18733
18219,4063,Jungeiros X,,37.945887,-8.197442
18064,1002,Casa Cant. Beringel,,38.04345,-7.936215
18167,4008,Nabos Baixo,,37.915037,-8.29742
18221,4065,Jungeiros,,37.9388,-8.208058
18458,8746,Rotunda Aeroporto,,38.040788,-7.925832
18170,4011,Monte Velhos (Aljustrel),,37.943208,-8.182692
18448,8736,Nabos de Cima,,37.91203,-8.287867
22432,1012,Coitos,,38.062172,-7.872555
18441,8729,Montes Velhos Pomba,,37.9401,-8.183315
18459,8747,Monte das Palmeiras,,38.038315,-7.909703
18238,4082,Sao Brissos - 1X,,38.03824,-7.9087
18084,1028,Marmelar,,38.171588,-7.65375
18437,8725,Ervidel Jardim,,37.966598,-8.082102
18214,4058,Ervidel,,37.96373,-8.085603
18460,8748,Merebeja,,38.0366,-7.902832
18362,8002,Base Aerea Cruzamento,,38.04561,-7.876573
18461,8749,Monte da Solavile,,38.034518,-7.898122
18094,1081,Marmelar - X,,38.169828,-7.635988
18436,8724,Montes S Vitoria,,37.967657,-8.044338
18438,8726,Barragem do Roxo X,,37.947563,-8.096235
18439,8727,Monte das Pegas,,37.937783,-8.104675
18213,4057,Santa Vitoria,,37.965355,-8.026397
18166,4006,Rio Moinhos (Aljustrel),,37.89504,-8.213788
18223,4067,Corte Vicente Anes,,37.92016,-8.132908
18041,833,Cercal Alentejo,,37.800535,-8.672192
18165,4005,Rio Moinhos - X (Aljust.),,37.892073,-8.21202
18431,8717,Espadanal,,37.799522,-8.659997
18393,8333,Beja Cadeia,,38.01968,-7.870232
18224,4068,Corte Vicente Anes - X,,37.914498,-8.121682
18396,8336,Beja Cp,,38.018137,-7.858688
18433,8721,Beja Etar,,38.008862,-7.878522
18397,8337,Beja Estig,,38.016722,-7.857883
18434,8722,Monte dos Pombos,,37.997893,-7.899383
18392,8332,Beja Jardim Bacalhau,,38.012783,-7.86602
18398,8338,Beja Toyota,,38.02003,-7.849552
18211,4055,Penedo Gordo,,37.987302,-7.917995
18391,8331,Beja Liceu,,38.011563,-7.863502
18395,8335,Beja Lumiar,,38.013695,-7.85848
18212,4056,Santa Vitoria - Est,,37.957717,-7.988137
18390,8330,Beja Pulo do Lobo,,38.010493,-7.861998
18394,8334,Beja Jardim Publico,,38.012008,-7.8583
18435,8723,Monte da Estacao,,37.963362,-7.970005
18164,4004,Bairro S.João,,37.887815,-8.182148
18388,8328,Beja Escola D Manuel,,38.008338,-7.863492
18378,8020,Pedrogao Rua Acima,,38.120075,-7.648922
18043,836,Beja,,38.009403,-7.858622
18389,8329,Beja Melius,,38.006153,-7.865297
18519,8810,Vale Dado,,38.019617,-7.834645
18081,1025,Pedrogao,,38.117883,-7.646845
18520,8811,Monte O Desejado,,38.021045,-7.827728
18137,3110,Fonte Nova,,37.788348,-8.616323
18521,8812,Monte do Mira,,38.023177,-7.820753
18386,8326,Beja Mario Beirao,,38.006223,-7.855562
18207,4051,Neves - X,,38.023562,-7.812957
18462,8750,Beja Quartel,,37.998092,-7.867077
18522,8813,Neves Igreja,,38.021367,-7.81598
18209,4053,Neves,,38.021772,-7.811422
18054,904,Aljustrel,,37.882927,-8.161935
18518,8809,Beja Bairro S Joao,,38.002505,-7.848587
18523,8814,Neves Escola Primaria,,38.020902,-7.809192
18525,8816,Cascalheira,,38.026848,-7.794892
18450,8738,Aljustrel N S Castelo,,37.877868,-8.169732
18584,8896,Valdoca,,37.879436,-8.164225
18155,3275,Aldeia Cano - X,,37.780645,-8.606048
18524,8815,Neves R Bento Jesus Caraca,,38.019225,-7.80702
18440,8728,Aljustrel Camara,,37.878403,-8.161973
18206,4050,Quinta Stº. Antonio,,38.02766,-7.783702
18526,8817,Porto Peles Monte Mariano,,38.020747,-7.796063
18442,8730,Aljustrel Escola Primaria,,37.872357,-8.166917
18210,4054,Porto Peles,,38.020833,-7.79254
18517,8808,Monte Alcoforado,,37.999322,-7.833112
18463,8751,Poco da Malta,,37.98165,-7.870163
18136,3109,Campo Redondo,,37.777993,-8.564215
18200,4044,Estrela,,38.268583,-7.388908
18516,8807,Restaurante Engenho,,37.997423,-7.828758
18227,4071,Vila Azedo,,38.005845,-7.809958
18275,4126,Mina Juliana,,37.907363,-8.044093
18527,8818,Fonte Frades,,38.024445,-7.770537
18511,8802,Mina Juliana X,,37.908912,-8.037703
18228,4072,Vila Azedo - X,,37.996655,-7.820908
18157,3277,Ribeira Seissal - X,,37.773275,-8.55124
18208,4052,Boavista,,37.97179,-7.872465
18443,8731,Monte Manteira,,37.859462,-8.173523
18528,8819,Casa Cantoneiros (Baleizao),,38.025257,-7.751877
18432,8718,Ribeira Seissal Baixo,,37.767593,-8.558585
18156,3276,Aldeia Cano,,37.759818,-8.609147
18225,4069,Messejana,,37.833107,-8.245358
18445,8733,Messejana Rua Aljustrel,,37.832147,-8.238325
18446,8734,Messejana Escola Primaria,,37.830055,-8.24211
18229,4073,Monte Padrao,,37.989792,-7.803992
18233,4077,Quinta Estacio - X,,37.978372,-7.827158
18444,8732,Paragem Eucaliptos,,37.835998,-8.202713
18158,3278,Ribeira Seissal,,37.755738,-8.560837
18529,8820,Baleizao Lar,,38.024662,-7.721663
18153,3243,Soalheira,,37.760648,-8.515238
18273,4124,Aldeia dos Elvas X,,37.806812,-8.293657
18056,932,Baleizao,,38.023322,-7.720997
18530,8821,Baleizao Baixo,,38.025508,-7.71431
18230,4074,Monte Padrao - X,,37.975863,-7.806037
18231,4075,Quinta Estacio,,37.975353,-7.803383
18135,3108,Barranco Cai Logo,,37.754625,-8.503263
18272,4123,Monteneg. (E),,37.788647,-8.325443
18581,8881,Raposinha,,37.966148,-7.813122
18271,4122,Ferrador,,37.774298,-8.353915
18449,8737,Vale Santiago X,,37.770013,-8.359192
18234,4078,Cabeceiras - X,,37.957912,-7.803655
18100,1618,Estrela - X,,38.244442,-7.325718
18582,8882,Monte do Aleixo,,37.95097,-7.79568
18118,3084,Colos,,37.73372,-8.462318
18426,8690,Colos Escola,,37.73291,-8.465283
18327,4214,Castro Verde Est.,,37.82352,-8.104497
18550,8841,Povoa S Miguel Escola,,38.223748,-7.337255
18515,8806,Monte Aldiota,,37.968432,-7.745562
18379,8021,Moura Escola,,38.142388,-7.445995
18603,8957,Moura Escola,,38.142388,-7.445995
18099,1555,Povoa S. Miguel,,38.22563,-7.332308
18549,8840,Moura Posto Turismo,,38.138482,-7.450725
18352,4287,Carregueiro,,37.821227,-8.104948
18531,8822,Herdade Paco Conde,,37.997445,-7.67928
18602,8956,Moura Escola Profissional,,38.135306,-7.449306
18051,882,Moura,,38.136982,-7.446587
18308,4163,Trindade - X,,37.893077,-7.895825
18203,4047,Brinches,,38.035107,-7.606207
18595,8946,Moura Terminal,,38.136306,-7.444278
18235,4079,Cabeça Gorda - X,,37.941267,-7.783993
18144,3202,Conceição,,37.77483,-8.241228
18143,3201,Alcarias,,37.778052,-8.226653
18309,4164,Albernoa,,37.863567,-7.956263
18548,8839,Moura Rossio S Luis,,38.12944,-7.445363
18120,3086,Santa Luzia (Colos),,37.732165,-8.405708
18411,8643,Santa Luzia Est Nacional,,37.73175,-8.403043
18464,8752,Albernoa Largo,,37.860958,-7.957837
18307,4162,Trindade,,37.886292,-7.893805
18119,3085,Santa Luzia - X,,37.727342,-8.40952
18583,8883,Cabeca Gorda Baixa,,37.928252,-7.791602
18237,4081,Salvada,,37.934852,-7.776015
18236,4080,Cabeça Gorda,,37.9248,-7.79329
18387,8327,Salvada Pombal,,37.93053,-7.780122
18232,4076,Quintos,,37.962672,-7.705827
18117,3080,Colos - X (Ramal Colos),,37.711312,-8.440637
18563,8856,Monte da Poupa,,37.880187,-7.869458
18116,3079,Reliquias,,37.699648,-8.486018
18130,3099,Funcheira Est,,37.727367,-8.338162
18205,4049,Ponte Guadiana,,37.978392,-7.652853
18427,8691,Barreiros Reliquias,,37.695903,-8.48652
18428,8695,Venda,,37.690222,-8.497288
18122,3089,Aivados,,37.75032,-8.213848
18121,3088,Ourique Est,,37.745393,-8.226623
18328,4215,Lagoa Mo,,37.782353,-8.09945
18123,3090,Casevel,,37.756657,-8.183907
18551,8842,Ourives,,38.208038,-7.283502
18429,8696,Furadouro,,37.681713,-8.51429
18547,8838,Monte Legua,,38.081375,-7.455488
18410,8642,Casevel Entrada,,37.752613,-8.181825
18412,8644,Garvao X,,37.711585,-8.341568
18115,3078,Portela Junqueiro,,37.675682,-8.527427
18314,4173,Monte Alfarrobeira,,37.862028,-7.863015
18129,3098,Garvao,,37.708777,-8.342827
18413,8645,Sardoa,,37.710232,-8.335042
18114,3077,Montinho (Odemira),,37.666435,-8.536838
18597,8948,Monte Balança (Moura),,38.101194,-7.398194
18409,8641,Monte Gregorios,,37.743102,-8.164492
18204,4048,Santa Ana,,37.961342,-7.617985
18430,8697,Ameixiais,,37.653587,-8.551407
18113,3076,Capelinha,,37.646485,-8.567218
18142,3198,Panoias - X,,37.69117,-8.317553
18150,3236,Monte Almeirim,,37.735463,-8.144962
18310,4166,Entradas,,37.775997,-8.013207
18052,884,Amareleja,,38.209913,-7.225632
18124,3091,Almeirim - X,,37.732238,-8.146502
18465,8753,Entradas Avenida,,37.771845,-8.016172
18538,8829,Pias Escola,,38.024313,-7.479432
18101,1642,Amareleja Escola,,38.204694,-7.221972
18128,3097,Espinhos,,37.683185,-8.31142
18202,4046,Pias,,38.021187,-7.477642
18594,8945,Santo Amador (Moura),,38.135444,-7.307361
18532,8823,Serpa Bombeiros,,37.948315,-7.597713
18533,8824,Serpa Casa Povo,,37.945477,-7.60133
18593,8944,Santo Amador X (Moura),,38.127556,-7.311444
18534,8825,Serpa Cinema,,37.94214,-7.601738
18536,8827,Serpa Cemiterio,,37.945945,-7.593045
18579,8874,Afarrobeira Turismo Rural,,37.818218,-7.860142
18112,3075,Fonte Boa,,37.6241,-8.594418
18057,933,Serpa,,37.938557,-7.601268
18145,3229,Casa Cant. Ourique,,37.696322,-8.218265
18380,8047,Monte Fragosa,,37.677965,-8.288542
18535,8826,Serpa Escola,,37.938875,-7.592828
18546,8837,Serpa Rotunda Escola,,37.937363,-7.59234
18215,4059,Santa Justa (Serpa),,37.950042,-7.561677
18315,4174,Amendoeira Campo - X,,37.80399,-7.860137
18125,3092,Ameixieira,,37.711612,-8.115588
18316,4175,Amendoeira Campo,,37.805898,-7.848237
18545,8836,Santa Iria X,,37.930335,-7.58466
18111,3067,Telheiro,,37.603313,-8.610863
18042,834,Odemira,,37.598883,-8.644708
18425,8686,Odemira Passagem Estreita,,37.597512,-8.638415
18414,8646,Odemira Chafariz,,37.596287,-8.647578
18415,8647,Bemparece,,37.594477,-8.662943
18562,8854,Vale Acor Cima,,37.792967,-7.853853
18110,3066,Bemposta (Odemira),,37.595733,-8.621532
18109,3064,Portas Transval,,37.590605,-8.664555
18276,4127,Monte Peixoto,,37.917672,-7.578817
18408,8640,Castro Verde Escola Eb23,,37.70238,-8.090662
18407,8639,Castro Verde Escola Primaria,,37.701487,-8.088858
18416,8648,Parque Aguas X,,37.58346,-8.666585
18053,903,Castro Verde,,37.700973,-8.084918
18217,4061,Monte Lage,,37.95621,-7.499118
18317,4176,Vale Açor Baixo (Beja),,37.785378,-7.843617
18108,3056,Foros Quintas,,37.580232,-8.667688
18104,3006,Boavista Pinheiros,,37.580813,-8.657602
18126,3094,Serro Lirio,,37.677203,-8.134827
18127,3095,Grandaços,,37.664647,-8.176758
18037,807,Ourique,,37.651005,-8.228093
18182,4026,Geraldes - X,,37.699315,-8.05577
18251,4099,Salto,,37.747353,-7.913813
18318,4177,Casa Muda,,37.777678,-7.835295
18216,4060,Pias - X,,37.967018,-7.451447
18561,8853,Vale Fresco,,37.772712,-7.829535
18537,8828,Vale Vargo Cafe Castrense,,37.984532,-7.413927
18181,4025,Geraldes,,37.689203,-8.049398
18218,4062,Vale Vargo,,37.983657,-7.41012
18555,8846,Santa Iria Saida,,37.893543,-7.561718
18554,8845,Santa Iria Cima,,37.890305,-7.560515
18154,3266,Piçarras (C.Verde),,37.65276,-8.143943
18277,4128,Santa Iria,,37.887527,-7.557808
18592,8943,Safara 1,,38.10675,-7.216806
18319,4178,Azinhal (Beja),,37.761347,-7.815038
18598,8949,Ponte do Ardila (Moura),,38.171806,-7.128194
18102,3003,Aldeia Nova Favela X,,37.620817,-8.24174
18466,8754,Monte Viseu,,37.675577,-8.046548
18250,4098,São Marcos Ataboeira,,37.707228,-7.940012
18544,8835,A do Pinto Campo Futefol,,37.919067,-7.480537
18180,4024,Monte Cerro,,37.669567,-8.044538
18047,850,A do Pinto,,37.919493,-7.474317
18422,8654,Monte Alpenduradas,,37.52828,-8.76096
18423,8655,Zambujeira Entrada,,37.527143,-8.76779
18040,823,Zambujeira do Mar,,37.525463,-8.783763
18424,8656,Zambujeira Parque Campismo,,37.526112,-8.77403
18131,3100,Aldeia Palheiros,,37.603875,-8.250645
18421,8653,Monte Branco,,37.524603,-8.754998
18406,8634,Campo de Guerreiros,,37.600638,-8.251128
18159,3279,Canal,,37.52192,-8.748803
18340,4256,Amendoeira Serra - X,,37.789802,-7.698928
18341,4257,Amendoeira Serra,,37.789873,-7.691663
18320,4179,Algodor,,37.743928,-7.793643
18103,3004,Aldeia Nova Favela,,37.602343,-8.220778
18306,4161,Negreiros,,37.638785,-8.081673
18420,8652,Monte Alcaria,,37.515245,-8.733322
18249,4097,Monte Rolao,,37.67538,-7.960478
18417,8649,Encalhe,,37.515832,-8.710042
18160,3361,Senhora Cola,,37.577983,-8.30083
18467,8755,Monte Branco,,37.65468,-8.016002
18543,8834,Vila Nova S Bento Lagar,,37.925905,-7.414763
18058,934,Vila Nova S.Bento,,37.927635,-7.411573
18179,4023,Namorados (C.Verde),,37.654055,-8.009175
18542,8833,Vila Nova S Bento Escola,,37.928343,-7.407653
18418,8650,S Teotonio Largo Rato,,37.510195,-8.71662
18419,8651,S Teotonio Escola,,37.510505,-8.705178
18596,8947,Sobral da Adiça 1,,38.020972,-7.264083
18600,8954,Sobral da Adica 2,,38.0225,-7.260528
18601,8955,Sobral da Adica 3,,38.023694,-7.258139
18541,8832,Vila Nova S Bento Dep Agua,,37.92507,-7.407535
18045,847,Sao Teotonio,,37.508797,-8.706892
18106,3013,Fernao Vaz,,37.57504,-8.276355
18105,3012,Fernao Vaz - X,,37.577633,-8.261543
18329,4233,Viseus,,37.656365,-7.952858
18243,4088,Monte Sorraias,,37.658817,-7.942137
18590,8941,Santo Aleixo X  (Moura),,38.074889,-7.159917
18278,4129,Monte Salta - X,,37.841722,-7.51927
18244,4089,Alcaria Coelho,,37.663088,-7.91488
18063,974,Rosario,,37.607945,-8.081183
18132,3101,Ponte Mira,,37.559598,-8.265128
18178,4022,Santa Barbara Padroes,,37.637135,-7.986887
18245,4090,Guerreiro,,37.671363,-7.887472
18322,4181,Alcaria Ruiva - X,,37.711277,-7.782553
18220,4064,Coelheiras - X,,37.936153,-7.345972
18321,4180,Alcaria Ruiva,,37.708117,-7.78354
18591,8942,Santo Aleixo (Moura),,38.06784,-7.153985
18241,4085,Bringelinho,,37.625247,-8.000662
18257,4105,Joao Serra,,37.678118,-7.838392
18107,3025,Aldeia Fernandes,,37.570187,-8.17072
18281,4132,Carapetal - X,,37.886988,-7.402017
18540,8831,Vila Verde Ficalho GNR,,37.946528,-7.306362
18059,935,Vila Verde Ficalho,,37.947195,-7.301602
18539,8830,Vila V Ficalho Igreja,,37.947785,-7.29957
18589,8940,Cazeta do Murtigao,,38.088472,-7.105556
18177,4021,Lombador - X,,37.620698,-7.980982
18133,3102,Portela Lobo,,37.538265,-8.2691
18279,4130,Cruz Cigana - 2X,,37.82088,-7.50111
18338,4254,C.Gafo Cima,,37.720325,-7.706772
18323,4182,Cruzt E.N.122 C/ En 1,,37.70255,-7.747862
18588,8939,Mina do Apariz,,38.105667,-7.070333
18477,8765,Monte Cotes,,37.559177,-8.15137
18246,4091,Figueirinha (Penilhos),,37.636833,-7.896518
18176,4020,Lombador,,37.607393,-7.981648
18247,4092,Tacoes,,37.646792,-7.868555
18242,4086,Sete,,37.616507,-7.953407
18163,4003,Lagoa Soeiro,,37.577773,-8.076552
18553,8844,Centro Rural Cruz Cigana,,37.831368,-7.462562
18161,4001,Corte Zorrinho,,37.556605,-8.14588
18280,4131,Cruz Cigana - X,,37.823598,-7.472678
18344,4263,Vales Mortos,,37.80696,-7.50267
18552,8843,Monte Cruz Cigana,,37.835943,-7.447575
18248,4093,Penilhos,,37.643172,-7.85314
18313,4170,Alvares,,37.663387,-7.795293
18504,8795,Porteirinhos,,37.576238,-8.0416
18134,3103,Ribeira Guilherme,,37.512293,-8.286865
18325,4184,Corte Velha - X,,37.687692,-7.730972
18478,8766,Sinceira Grande,,37.541887,-8.158203
18324,4183,Corte Velha,,37.681882,-7.74179
18353,4289,Soupos/Carolinas,,37.846217,-7.408013
18599,8952,Barrancos (X),,38.127833,-7.011556
18330,4236,Martinhanes,,37.633438,-7.854322
18505,8796,Monte dos Mestres,,37.582372,-7.995583
18556,8847,Vale Romeiros,,37.775843,-7.520742
18560,8852,Cela,,37.682118,-7.717807
18060,944,Santana Serra,,37.498507,-8.300048
18274,4125,Corvos X (Almodov.),,37.5829,-7.981692
18476,8764,Castelo Alto,,37.538248,-8.12877
18343,4262,Montalvo Vale Poço,,37.76229,-7.537522
18187,4031,Moinhos de Vento (Almodovar),,37.52725,-8.160083
18587,8938,Barrancos,,38.133083,-6.976083
18175,4019,A. do Corvo,,37.578317,-7.964482
18256,4104,Romeiras,,37.631335,-7.815012
18503,8794,Monte Beato,,37.54556,-8.068838
18475,8763,Monte da Maruta,,37.530767,-8.119102
18186,4030,Gomes Aires,,37.51487,-8.177187
18174,4015,A do Neves,,37.568843,-7.979768
18479,8768,Pegos Horta Cima,,37.515687,-8.15905
18262,4113,Corte Sines,,37.70932,-7.60962
18172,4013,Senhora Graça Padrões,,37.56424,-7.972513
18185,4029,Moinhos Vento - X,,37.509688,-8.156943
18183,4027,Santa Clara-A-Nova X,,37.505738,-8.147315
18337,4253,Mertola - X,,37.663883,-7.682072
18162,4002,Aldeia Fernandes - X,,37.512823,-8.108788
18474,8762,Medronheira,,37.513935,-8.090923
18255,4103,Sao Joao Caldeireiros,,37.613013,-7.789347
18502,8793,Monte Mingas,,37.531068,-8.018867
18291,4145,Gorazes - X,,37.539532,-7.989638
18293,4147,Senhora Graça Padroes - X,,37.541955,-7.98004
18480,8769,St Clara A Nova Entrada,,37.492365,-8.146908
18061,958,Almodovar,,37.515228,-8.058142
18468,8756,Semblana Junta Freguesia,,37.545177,-7.958735
18184,4028,Santa Clara-A-Nova,,37.489598,-8.144838
18473,8761,Almodovar Largo S Rufina,,37.511477,-8.06246
18173,4014,Semblana,,37.543213,-7.958208
18254,4102,Ledo,,37.617772,-7.751315
18469,8757,Semblana X,,37.541482,-7.961187
18501,8792,Almodovar Lar,,37.509997,-8.063152
18472,8760,Almodovar Esc Secundaria,,37.510873,-8.057337
18252,4100,Namorados (Mertola),,37.631258,-7.70924
18253,4101,Sao Sebastiao Carros-X,,37.62352,-7.727263
18292,4146,Gorazes,,37.525233,-7.987332
18573,8868,Brites Gomes X,,37.613985,-7.733617
18559,8850,Sapos Namorados,,37.629477,-7.695883
18055,925,Mertola,,37.642645,-7.659062
18294,4148,Monte Vinha Almodovar,,37.526552,-7.967208
18288,4142,Alcaria Longa,,37.561943,-7.861675
18564,8857,Mertola Bombeiros,,37.639938,-7.66372
18283,4137,Brites Gomes,,37.609983,-7.732558
18284,4138,Monte Vasco - X,,37.598503,-7.754558
18261,4112,Corvos,,37.654197,-7.597695
18260,4111,Quinta (Moreanes),,37.64587,-7.609075
18190,4034,Monte Mestras - X,,37.475033,-8.074032
18326,4185,Corte Pinto,,37.702128,-7.480763
18577,8872,Serranos,,37.539157,-7.859528
18295,4149,Monte Viuvas,,37.507483,-7.953165
18574,8869,Monte Belo,,37.57676,-7.756115
18500,8791,Monte Charrua,,37.472572,-8.060885
18287,4141,São Miguel Pinheiro,,37.54401,-7.83784
18575,8870,Boizoes X,,37.570792,-7.760517
18258,4109,Fernandes - X,,37.630772,-7.617317
18311,4168,Guedelhas,,37.490893,-7.983048
18580,8875,Monte Alto,,37.625767,-7.621808
18296,4150,Morgadinho,,37.476412,-8.024855
18286,4140,Gois,,37.550748,-7.799635
18342,4261,Sapos - X,,37.66068,-7.538463
18282,4136,Sao Sebastiao Carros,,37.559433,-7.769862
18189,4033,Monte Mestras,,37.464227,-8.050763
18259,4110,Fernandes,,37.619027,-7.61999
18557,8848,Mina S Domingos GNR,,37.676223,-7.498445
18263,4114,Moreanes,,37.645762,-7.558022
18558,8849,Moreanes Igreja,,37.643383,-7.561582
18266,4117,Mina S Domingos,,37.67136,-7.500998
18578,8873,Monte Gato,,37.53422,-7.81978
18470,8758,Guedelhas X,,37.469858,-8.012312
18499,8790,Curvatos,,37.453343,-8.061527
18492,8781,Monte Canafixal,,37.417427,-8.200593
18576,8871,Manuel Galo,,37.540357,-7.792355
18304,4159,Portelas,,37.411908,-8.22075
18331,4240,Alamo,,37.58103,-7.686207
18285,4139,Boizoes,,37.557285,-7.744353
18349,4284,Malhao,,37.408163,-8.231628
18491,8780,Monte Figueiras,,37.416277,-8.19581
18585,8899,Monte Xerez,,37.48442,-7.943318
19222,4259,Tamejoso,,37.611168,-7.600843
18290,4144,Sao Pedro Solis,,37.492098,-7.900288
18347,4281,Azinhal - X,,37.444898,-8.052237
18360,4296,Varzea Ourique,,37.388848,-8.271115
18303,4158,Monte Abaixo,,37.405477,-8.183688
18359,4295,Pardieiro,,37.38687,-8.266472
18358,4294,Loendreiro,,37.388123,-8.257972
18498,8789,Cidadaos,,37.435655,-8.056752
18586,8900,Monte dos Grandes,,37.47704,-7.919042
18566,8861,Hortinha,,37.489217,-7.880032
18289,4143,Corredora,,37.502852,-7.834597
18197,4041,Quinta Maior,,37.49166,-7.865992
18471,8759,Poco Serrano,,37.447193,-7.996262
18490,8779,Monte das Cercas,,37.398805,-8.174435
18567,8862,Quinta Maior X,,37.490603,-7.857982
18264,4115,Santana Cambas - X,,37.623073,-7.532975
18270,4121,Montes Alves,,37.605873,-7.566045
18265,4116,Santana Cambas,,37.623218,-7.526593
18497,8788,Montinho Algarvio,,37.42305,-8.067075
18346,4280,Azinhal,,37.433467,-8.026387
18188,4032,Moinhos de Vento (Mertola),,37.545417,-7.699944
18572,8867,Moinhos Vento Cima,,37.546611,-7.696361
18565,8860,Castelejo,,37.470273,-7.902377
18489,8778,Cumeada (Malhao),,37.392765,-8.163588
18357,4293,Santa Suzana,,37.375508,-8.236152
18191,4035,Fonte Ferrenha,,37.414832,-8.069903
18267,4118,Bens,,37.606072,-7.536402
18570,8865,Diogo Martins X,,37.505373,-7.77241
18297,4151,Dogueno,,37.433813,-7.982522
18483,8772,Telhada,,37.429037,-7.997187
18269,4120,Picoitos,,37.590487,-7.563013
18302,4156,Monte Soeiras,,37.386223,-8.154518
18336,4252,Sao Bartolomeu Via Gloria,,37.525793,-7.714083
18305,4160,Diogo Martins,,37.503615,-7.769973
18335,4251,Penedos - X,,37.491947,-7.799405
18356,4292,Ribeira Odelouca,,37.368323,-8.224005
18333,4249,Monte Fialho,,37.458928,-7.891852
18571,8866,Vargens X,,37.51543,-7.731322
18569,8864,Roncao X,,37.479847,-7.825512
18345,4278,Monte Corcha,,37.472022,-7.846095
18355,4291,Varzea Redonda,,37.371043,-8.197678
18334,4250,Penedos,,37.489002,-7.796873
18496,8787,Saltao,,37.399793,-8.080082
18568,8863,Monte Santana,,37.477215,-7.828447
18332,4248,Roncao,,37.477798,-7.821998
18481,8770,Espojeirinho,,37.43341,-7.950627
18268,4119,Salgueiros - X,,37.591392,-7.538937
18482,8771,Romba,,37.436863,-7.938688
18495,8786,Cerro do Negro,,37.394923,-8.07947
18299,4153,Cumeada,,37.412963,-8.00996
18298,4152,Santa Cruz (Almodovar),,37.440462,-7.919043
18192,4036,Brunheira,,37.387618,-8.097055
18484,8773,Cassapos,,37.408357,-8.019268
18494,8785,Monte Novo Estrada,,37.385547,-8.089445
18348,4283,São Barnabe - X,,37.37363,-8.118303
18354,4290,Monte Vinha S.Barnabe,,37.359633,-8.170523
18193,4037,Brunheira - X,,37.38095,-8.079587
18485,8774,Corte Figueira Igreja,,37.392945,-8.032457
18488,8777,Gaviao (Almodovar),,37.371733,-8.111858
18300,4154,Corte Figueira,,37.393732,-8.027825
18198,4042,São Barnabe,,37.358463,-8.163563
18493,8784,Cerro das Covas,,37.357942,-8.158547
18487,8776,Cansados,,37.37387,-8.086693
18194,4038,Talefe,,37.371685,-8.079147
18196,4040,Felizes - X,,37.367723,-8.080113
18351,4286,Corte Pinheiro - X,,37.373685,-8.04208
18301,4155,Atalaia (Almodovar),,37.371338,-8.044737
18195,4039,Felizes,,37.354918,-8.095038
18486,8775,Moimentos,,37.361492,-8.064785
18350,4285,Corte Pinheiro,,37.361138,-8.020847