stop_id,stop_code,stop_name,stop_desc,stop_lat,stop_lon
16814,402,Abrantes,,39.463025,-8.213527
17306,8399,Abrantes Clinica,,39.461782,-8.204963
17305,8398,Abrantes Mercado,,39.460848,-8.199685
17304,8397,Abrantes Hospital,,39.457312,-8.19998
17302,8395,Barreiras do Tejo,,39.452317,-8.196285
17303,8396,Abrantes Escola,,39.459435,-8.192623
17066,1547,Rossio Sul Tejo,,39.446667,-8.194033
17075,1557,Estacao Cp Sul Tejo,,39.440369,-8.193983
17067,1548,Arrifana,,39.42933,-8.18775
17068,1549,Sao Macario,,39.422735,-8.184842
17069,1550,Telhado - X,,39.393438,-8.162578
17121,1910,Foros Arrao Baixo,,39.160903,-8.260613
17272,8350,Foros Arrao R Vasco Gama,,39.155452,-8.260737
17273,8351,Foros Arrao Cemiterio,,39.17184,-8.2478
17271,8349,Foros Arrao Baixo R Forcas Armadas,,39.149513,-8.262598
17274,8352,Foros Arrao Cima,,39.17684,-8.241213
17120,1909,Foros Arrao,,39.181348,-8.237557
17301,8394,Bemposta En 2,,39.356815,-8.142857
17300,8393,Bemposta Escola,,39.35458,-8.141182
17070,1551,Bemposta (Abrantes),,39.352133,-8.139302
17071,1552,Chamine - X,,39.348957,-8.138428
17115,1676,Passada,,39.137475,-8.245835
17072,1553,Bemposta - X,,39.289135,-8.130332
17156,5913,Farinha Branca,,39.106593,-8.198035
17155,5740,Lisboa Gare Oriente,,38.768061,-9.100975
17270,8348,Abertas,,39.097113,-8.177237
17263,8341,Montargil Cafe Tropical,,39.07986,-8.175837
17117,1688,Vale Vilao,,39.143845,-8.12325
17074,1556,Vale Bica - X,,39.265233,-8.05425
17265,8343,Vale Vilao Inicio,,39.136672,-8.126663
16822,811,Montargil,,39.078225,-8.172623
17157,5914,Montargil - X,,39.087772,-8.164233
17264,8342,Carvalhoso,,39.094292,-8.15127
17002,1434,Montalvo,,39.102817,-8.142437
17116,1687,Vale Vilao - 1º. X,,39.13252,-8.119132
17118,1689,Vale Vilão - 2º. X,,39.139597,-8.112435
17001,1433,Rasquete,,39.14906,-8.098923
17000,1432,Cansado,,39.181478,-8.07055
16999,1431,Agua Todo Ano,,39.227263,-8.043408
17014,1448,Salteiros,,39.305985,-8.008812
17313,8406,Limite Freg Longomel,,39.291718,-8.01298
17073,1554,Domingao,,39.245077,-8.029635
17015,1449,Rosmaninhal,,39.322567,-7.999095
17312,8405,Longomel Gdrr,,39.333973,-7.993938
17016,1451,Longomel,,39.335463,-7.992422
17299,8392,Tramaga Rua Principal,,39.219563,-8.03789
17013,1447,Barreiras,,39.274077,-8.012633
16998,1430,Tramaga,,39.222402,-8.035458
17089,1582,Longomel - X,,39.331078,-7.991157
17298,8391,Tramaga Esc Primaria,,39.224973,-8.03245
17266,8344,Canarias,,39.244582,-8.022778
16997,1429,Cantinho Ceu,,39.23702,-8.025132
17314,8407,Ponte Sor Modelo,,39.264238,-8.01165
16995,1426,Ponte Sor Escola Secundaria,,39.254987,-8.014695
17017,1452,Escusa - Longomel,,39.335733,-7.983475
17050,1502,Cadafaz,,39.476617,-7.959792
17063,1535,Belver,,39.494,-7.959133
17076,1561,Foros Mocho,,39.05911,-8.1357
17315,8408,Ponte Sor Av Liberdade,,39.25681,-8.010572
17311,8404,Tom,,39.338513,-7.977937
16821,810,Ponte Sor,,39.2486,-8.0084
16996,1427,Amieira Cova,,39.432132,-7.95
17152,5627,Vale Vaca,,39.030923,-8.143523
17127,3254,Ervideira,,39.219598,-8.009428
17310,8403,Vale Arco Largo 1 Maio,,39.35434,-7.95679
17018,1453,Vale Arco,,39.356542,-7.956033
17019,1454,Monte Novo - Ponte Sor,,39.360223,-7.955023
16825,821,Gaviao,,39.464835,-7.937618
17126,3253,Ervideira - X,,39.227898,-8.000167
17267,8345,Ervideira 1 X,,39.22135,-7.99797
17020,1455,Sao Bartolomeu,,39.379263,-7.93762
16994,1425,Vale Boi,,39.203565,-7.996532
17080,1572,Vale Bispo Fundeiro - X,,39.248187,-7.974708
17309,8402,S Bartolomeu Chafariz,,39.38183,-7.932735
17024,1459,Reidao,,39.45053,-7.92272
17023,1458,Vale Carvalho - X,,39.435028,-7.914027
16993,1424,Ribeira Vinhas,,39.183562,-7.993297
17081,1573,Vale Bispo Fundeiro,,39.26496,-7.947653
16992,1423,Galveias,,39.158975,-7.997625
17025,1463,Degracia Cimeira,,39.452997,-7.898993
17124,3251,Aldeia Velha,,39.093223,-8.034585
17022,1457,Vale Vinha,,39.413173,-7.899663
16991,1422,Aldeia Velha - X,,39.148082,-7.99571
17327,8420,Degracia Fundeira,,39.453162,-7.892758
16823,812,Mora,,38.945648,-8.161867
17125,3252,Vale Hortas,,39.109265,-8.015798
17021,1456,Vale Gavioes,,39.380037,-7.900032
17307,8400,Vale Bordalo,,39.381768,-7.898058
17087,1580,Vale Madeira,,39.36935,-7.89947
17086,1579,Ferraria - X,,39.396483,-7.893222
17151,5626,Monte Chamine,,38.964765,-8.132358
17308,8401,Monte dos Pereiros,,39.349685,-7.900197
17088,1581,Moinho Torrao,,39.34624,-7.900763
17153,5629,Vale Mora - X,,38.945355,-8.149625
17082,1574,Vale Bispo Cima,,39.275497,-7.92114
17083,1575,Torre Vargens,,39.309127,-7.909658
17077,1567,Ferraria,,39.408662,-7.886365
17200,8213,Acude do Gameiro X,,38.960327,-8.130512
17235,8296,Vale Acor Escola Primaria,,39.250625,-7.927032
17012,1446,Vale Açor,,39.249045,-7.925033
17026,1464,Atalaia (Gaviao),,39.45417,-7.874348
17234,8295,Vale Acor R 1 Dezembro,,39.247498,-7.921052
17027,1465,Atalaia - X (Gaviao),,39.442632,-7.87073
17236,8297,Pegoes X Setubal,,38.682675,-8.612523
17139,5086,Pegoes - X,,38.683302,-8.607862
17198,8183,Postes Carmo,,38.682998,-8.59845
17197,8182,Restaurante Forcado,,38.682265,-8.591627
17237,8298,Pegoes Fabrica Eurodoces,,38.67374,-8.61425
17140,5090,Manuel Afonso,,38.680962,-8.582633
17195,8180,Afonsos,,38.680233,-8.576813
17028,1466,Comenda - X,,39.441242,-7.852438
17196,8181,Afonsoeiro,,38.67932,-8.570187
17138,5085,Pegoes Est Gare,,38.66491,-8.618405
17147,5149,Piçarras - X,,38.680588,-8.555783
17123,3250,Monte Barba Torta,,39.098053,-7.963733
17046,1493,Margem Esq. Rio Tejo,,39.521748,-7.834567
17238,8299,Campo  Experimental M Agricultura,,38.650043,-8.63106
16990,1421,Pero Viegas,,39.099577,-7.958308
17141,5091,Bombel,,38.684743,-8.514483
17043,1486,Herdade Comenda,,39.435525,-7.832362
17193,8177,Bombel Stand Motas,,38.686052,-8.504697
17192,8176,Bombel Vivenda Por do Sol,,38.685608,-8.49809
17011,1445,Alto Lameira,,39.234768,-7.877032
17148,5150,Piçarras (V.Novas),,38.653157,-8.581515
17191,8175,Vendas Novas Cafe O Terraco,,38.683998,-8.485595
17190,8174,Vendas Novas Cafe Alkimia,,38.683425,-8.481432
17045,1492,Amieira Tejo,,39.510063,-7.813085
17189,8173,Vendas Novas Bombas Galp,,38.682397,-8.473633
17174,8134,Vendas Novas Boavista,,38.681593,-8.470055
17178,8150,Vendas Novas Rest Rainha Bifanas,,38.680778,-8.466765
17177,8149,Vendas Novas Credito Agricola,,38.67863,-8.458273
17106,1626,Vila Flor - X,,39.509792,-7.797222
17176,8148,Vendas Novas Camara,,38.677325,-8.45497
17137,5084,Fabrica Tomate - Pegoes,,38.612508,-8.658742
16852,878,Est Rodoviaria V.Novas,,38.674208,-8.457225
17179,8163,Vendas Novas Rotunda da Artilharia,,38.674727,-8.449843
17005,1438,Valongo,,39.171538,-7.871373
17180,8164,Vendas Novas Intermache,,38.672435,-8.445483
17042,1485,Vale Feiteira,,39.387683,-7.794862
17079,1571,Cunheira,,39.319967,-7.809628
17317,8410,Cunheira Junta Freguesia,,39.318002,-7.809995
17239,8300,Landeira X,,38.600208,-8.664727
17136,5083,Moinho Novo,,38.599528,-8.655758
17128,5071,Fabrica Man,,38.667907,-8.436487
17329,8422,Comenda Rua Boavista,,39.395777,-7.782943
17328,8421,Comenda Largo Necessidades,,39.400475,-7.781065
17041,1484,Comenda,,39.398177,-7.781278
17241,8302,Agualva,,38.584943,-8.7095
17316,8409,Chanca Cafe Coimbra,,39.245693,-7.820473
17194,8179,Landeira Rua 25 de Abril,,38.595913,-8.651877
17010,1444,Chança,,39.248933,-7.81748
17085,1577,Chança - Est,,39.274687,-7.808277
17242,8303,Soares Costa,,38.581275,-8.720405
17105,1625,Amieira - X,,39.497923,-7.769622
17133,5080,Aguas Moura Est,,38.577058,-8.743967
17004,1436,Monte Branco (Avis),,39.134928,-7.868497
17240,8301,Aguas Moura Bombeiros,,38.58422,-8.697147
17150,5377,Landeira,,38.59422,-8.64861
17243,8304,Aguas Moura Cp,,38.573958,-8.747972
17134,5081,Aguas Moura,,38.583978,-8.691167
16989,1420,Ferradeira,,39.07044,-7.9044
17245,8306,Gambia R 1 de Maio,,38.568542,-8.764037
17244,8305,Escumalha,,38.569935,-8.754367
17132,5079,Gambia,,38.5667,-8.773705
17135,5082,Porto Abrigo,,38.581823,-8.680497
17040,1483,Monte Lameira,,39.385587,-7.770238
17233,8294,Benavila Est Pilha Carvao,,39.107233,-7.874683
17246,8307,Retiro Motoristas,,38.562213,-8.78397
16986,1412,Benavila,,39.111077,-7.8704
17247,8308,Apeadeiro,,38.561063,-8.786602
17003,1435,Valongo - X,,39.124147,-7.860165
17248,8309,Moveis Formosa,,38.558115,-8.793308
17029,1468,Tolosa - X,,39.468273,-7.755647
16984,1409,Benavila - X,,39.063488,-7.896785
17142,5094,Marconi,,38.659953,-8.409745
17249,8310,Pontes,,38.555152,-8.802715
17250,8311,Pontes Cafe Central,,38.552357,-8.80789
17098,1600,Falagueira,,39.537093,-7.748448
17009,1443,Chança - X,,39.21973,-7.805225
17131,5078,Sitio Pontes,,38.549368,-8.812175
17181,8165,Marconi Km 64,,38.658473,-8.397293
17232,8293,Avis Bombas Total,,39.052913,-7.893008
16840,853,Avis,,39.054177,-7.891318
17251,8312,Pontes Cafe Pina,,38.546115,-8.817777
17130,5077,Cotovia,,38.544202,-8.827367
17252,8313,Sado,,38.54377,-8.830905
17060,1522,Alcorrego - 1 X,,39.018967,-7.913482
16870,1157,Olival - X,,39.013573,-7.91752
17231,8292,Avis Farmacia Nova,,39.052985,-7.88841
17097,1599,Falagueira - X,,39.527177,-7.738622
16985,1410,Alcorrego,,39.017728,-7.910858
17256,8317,Poco Mouro,,38.53762,-8.854873
17253,8314,Hotel Ibis,,38.539242,-8.837667
17061,1523,Montinho (Avis),,39.008512,-7.916268
17129,5076,Alto Guerra,,38.53796,-8.846823
17255,8316,Alto Guerra Rest Campones,,38.538112,-8.84476
17254,8315,Alto Guerra Arm Moinho,,38.538307,-8.842027
17182,8166,Marconi Km 65,,38.654777,-8.384547
17257,8319,C N Electrica,,38.535325,-8.863053
17039,1482,Monte Pedra,,39.364072,-7.749052
17258,8320,Monte Belo,,38.533943,-8.869168
17259,8321,Quatro Caminhos,,38.5313,-8.87534
17260,8322,Setubal Av D Joao II,,38.530023,-8.876497
17261,8323,Setubal Hospital,,38.52891,-8.882507
17262,8324,Setubal Rua Almeida Garret,,38.528482,-8.887155
16832,829,Setubal,,38.52573,-8.889543
16818,805,Arez,,39.48414,-7.725588
17093,1592,Chao Velha,,39.580903,-7.727198
17104,1619,Lamarrancha - X,,39.440182,-7.727093
17099,1601,Monte Claro,,39.52898,-7.718965
17143,5095,Cabrela - X,,38.649517,-8.361483
17006,1440,Seda,,39.190258,-7.786228
17183,8167,Silveiras Km 68,,38.651165,-8.350388
17184,8168,Silveiras Oasis,,38.650565,-8.344722
16827,824,Tolosa,,39.423833,-7.715602
17341,8447,Tolosa Rua Catraia,,39.422333,-7.714378
17149,5179,Silveiras (Mont.),,38.650135,-8.33969
17094,1593,Cacheiro,,39.568567,-7.707412
17185,8169,Silveiras Km 70,,38.650055,-8.330448
17037,1480,Aldeia Mata (Crato),,39.304733,-7.728035
17030,1470,Herdade Figueiro,,39.498348,-7.699677
16974,1390,Fadagosa - X,,39.465038,-7.699828
17342,8448,Monte Duque,,39.616098,-7.704793
17038,1481,Aldeia Mata - X,,39.331212,-7.717408
17343,8449,Duque,,39.61419,-7.702888
17102,1604,Monte Duque - X,,39.61284,-7.702587
17101,1603,Monte Arneiro,,39.617048,-7.702653
17007,1441,Seda - X,,39.203508,-7.756825
17096,1595,Velada,,39.572138,-7.69491
17095,1594,Velada - 2 X,,39.563005,-7.691622
17186,8170,Safira X,,38.645092,-8.308515
17340,8446,Gafete Bairro Dr Armando Pequito,,39.414247,-7.689937
17144,5099,Alto Cuncos,,38.647378,-8.299017
17100,1602,Minas Maria Dias,,39.520268,-7.682138
16828,825,Gafete,,39.411685,-7.683405
17344,8450,Pardo,,39.602763,-7.68224
17145,5100,Ponte Lage,,38.649647,-8.277302
17103,1605,Monte Pardo - X,,39.604417,-7.675513
16841,854,Ervedal,,39.042728,-7.814425
17036,1479,Coito Vale Figueiras,,39.302883,-7.69284
17187,8171,Oliveira Vigia,,38.649057,-8.259557
20768,1578,Almadafe,,38.960003,-7.862253
16928,1314,Montes - X,,39.600985,-7.660933
16926,1312,Velada - X,,39.538517,-7.653193
16927,1313,Ribeira Nisa,,39.573333,-7.654485
17326,8419,Nisa Cine Teatro,,39.5164,-7.65098
17188,8172,Fonte Cavaleiros,,38.645213,-8.23933
17325,8418,Nisa Escola,,39.509128,-7.647585
16819,806,Nisa,,39.514115,-7.647467
17008,1442,Fonte Tujana,,39.19694,-7.703262
17175,8137,Montemor O Novo Cafe Pao Nosso,,38.64974,-8.217833
16924,1308,Vale Peso Est,,39.357592,-7.652605
16820,808,Montemor Novo,,38.648442,-8.211942
16925,1310,Alto Menises,,39.473712,-7.635688
17044,1487,Vale Peso,,39.350092,-7.64896
17173,8087,Janelinha Verde,,38.646323,-8.203978
16930,1323,Vale Peso - X,,39.345068,-7.644052
16980,1400,Figueira Barros,,39.047823,-7.762393
17146,5137,Pontao Torre,,38.655797,-8.175055
16923,1307,Flor Rosa,,39.304948,-7.64563
17330,8423,Crato Escola,,39.290027,-7.64894
16817,804,Alpalhao,,39.417468,-7.620972
17324,8417,Alpalhao Est Nisa,,39.421945,-7.619822
16844,857,Crato,,39.28832,-7.645107
17323,8416,Alpalhao Largo S Tiago,,39.415777,-7.617638
17319,8412,Crato Est Portalegre,,39.288528,-7.638863
16921,1304,Cabeço S.Lourenço,,39.241343,-7.65284
20771,8290,Casa Branca Rua Estalagem,,38.949752,-7.811735
16979,1399,Figueira Barros - X,,39.036003,-7.750247
17318,8411,Alter Chao X,,39.196018,-7.667085
17220,8270,Barragem Minutos X,,38.691625,-8.09126
20770,8289,Casa Branca Parque Infantil,,38.948408,-7.808182
20767,1414,Casa Branca Cano,,38.948275,-7.806365
16922,1305,Crato Est,,39.269537,-7.636427
16856,1089,Valeira - 1 X,,38.695218,-8.079098
16843,856,Alter Chao,,39.198268,-7.659568
16988,1418,Monte Novo - Ervedal,,38.981765,-7.771733
19228,1302,Alter Chao - X,,39.187752,-7.654858
16857,1106,Sao Pedro Gafanhoeira - X,,38.709323,-8.04209
16968,1382,Passagem Nivel (Port.),,39.383375,-7.587928
16969,1385,Monte Russos,,39.293135,-7.60232
16855,896,Cano,,38.963427,-7.762037
16978,1398,Casa Cant. Lupi,,39.044632,-7.707178
17199,8194,Arraiolos Escola,,38.725635,-7.990418
17230,8288,Cano Av D Joao Basilio,,38.958805,-7.75427
16849,866,Arraiolos,,38.722613,-7.984495
19227,1301,Monte Seco - X,,39.122805,-7.651008
16859,1108,Sao Gregorio - X,,38.787977,-7.902202
17221,8271,Vale Pereiro 1 X,,38.777273,-7.910218
17222,8272,Murteirinha,,38.804315,-7.878558
22430,1107,Ceramica,,38.740522,-7.947522
16970,1386,Pisao - X,,39.288263,-7.576447
19226,1298,Ponte Papa Leite,,39.15755,-7.620078
16850,867,Vimieiro,,38.829452,-7.839433
16967,1380,Alagoa - X,,39.356257,-7.546288
17113,1674,Monte Velha,,39.272948,-7.560365
16829,826,Alagoa,,39.359185,-7.540023
16842,855,Fronteira,,39.056768,-7.64868
17114,1675,Pisao,,39.262977,-7.56046
17031,1474,Montalvao,,39.59468,-7.526665
17345,8451,Montalvao Est Povoa,,39.590738,-7.525248
17346,8452,Barragem Povoa X,,39.503505,-7.520188
17033,1476,Povoa E Meadas,,39.511205,-7.518645
17032,1475,Vale Figueira,,39.545402,-7.509243
19225,818,Cabeço Vide,,39.131298,-7.58923
16971,1387,Crocieira,,39.29014,-7.532832
17034,1477,Herdade Mao Parada,,39.473848,-7.503747
20769,8287,Sousel Matadouro,,38.950327,-7.687218
17223,8273,Ponte Farajela,,38.820938,-7.793017
19243,1296,Cabeço Vide Est,,39.136037,-7.576805
16854,888,Sousel,,38.952133,-7.674588
16972,1388,Senhor Aflitos - X,,39.288943,-7.513537
16954,1362,Castelo Vide Est,,39.422578,-7.489493
16860,1110,Aldeia Rebocho,,38.824093,-7.77326
17364,8470,Pomarinho,,39.398275,-7.487578
16830,827,Fortios,,39.325345,-7.498935
17035,1478,Passagem Nivel (Nisa),,39.442623,-7.478397
17365,8471,Senhora Luz,,39.423517,-7.476927
17064,1536,Povoa E Meadas - X,,39.424093,-7.476238
17322,8415,Fortios Cafe Cocas,,39.320637,-7.491942
17321,8414,Fortios Est Nacional,,39.31732,-7.486252
17320,8413,Fortios Quinta do Chafariz,,39.315085,-7.480172
16861,1111,Ribeira Tera,,38.831707,-7.733275
19242,1295,Montes Paulos,,39.11828,-7.54365
16987,1416,Santa Vitoria Ameixial,,38.898132,-7.67589
16953,1361,Ponte Ribeira Nisa,,39.365413,-7.46496
17347,8453,Castelo Vide Bairro Novo,,39.41338,-7.45831
16831,828,Castelo Vide,,39.414377,-7.454032
16973,1389,Frangoneiro,,39.291535,-7.473602
17348,8454,Castelo Vide Escola,,39.412527,-7.451348
16874,1231,Santa Vitoria Ameixial -X,,38.895667,-7.66551
16976,1392,Senhora Penha - X,,39.399795,-7.449258
17349,8455,Castel0 Vide Pingo Doce,,39.406935,-7.445495
17206,8236,Ramilo,,38.89195,-7.66107
17224,8274,Monte Favacha,,38.835228,-7.707088
17363,8469,Fonte Sapo,,39.340228,-7.451027
16966,1378,Monte Coucelo,,39.301005,-7.456172
16975,1391,Miradouro,,39.38644,-7.436205
16952,1360,Vargem,,39.329048,-7.444795
17205,8235,Carreira de Tiro,,38.88707,-7.650512
16965,1377,Senhora Penha,,39.297962,-7.450783
17360,8466,Alto Ribeiro Buraco,,39.34035,-7.440803
17361,8467,Monte Jjsm,,39.350415,-7.437107
16964,1375,Carreiras,,39.372415,-7.43271
17362,8468,Carreiras Rest Chocalho,,39.365455,-7.43377
16940,1340,Pedra Ouro,,39.31264,-7.441445
17359,8465,Pedra Ouro 1,,39.310978,-7.441422
16915,1294,Vaiamonte,,39.09227,-7.511542
17356,8462,Monte Paleiros Cafe Borralho,,39.328395,-7.430802
17350,8456,Escusa X,,39.394412,-7.418895
16885,1260,Coutada,,39.235675,-7.452665
16886,1261,Telheiros,,39.260788,-7.445263
17357,8463,Portalegre Liceu,,39.302702,-7.433708
17078,1570,Venda Porca,,38.878015,-7.638402
17207,8238,Vaiamonte Quinta da Eira,,39.09015,-7.507047
17355,8461,Monte Paleiros,,39.328643,-7.426618
17213,8244,Portalegre Centro de Saude,,39.291327,-7.434687
16816,803,Portalegre,,39.297639,-7.432583
17358,8464,Portalegre Navio,,39.299913,-7.432013
17214,8245,Portalegre Muralhas,,39.292742,-7.43353
17212,8243,Portalegre Semiador,,39.289733,-7.432663
16941,1342,Monte Carvalho - X,,39.325822,-7.421405
17211,8242,Portalegre Bombeiros,,39.283015,-7.43081
17339,8433,Portalegre Largo S Francisco,,39.288852,-7.429038
16955,1364,Escusa - C.Vide,,39.392373,-7.409635
16943,1344,Alto Quinta Nova,,39.337247,-7.417722
16887,1262,Portalegre - X,,39.278585,-7.43022
17204,8234,Godinheira,,38.871983,-7.63198
17210,8241,Bairro Assentos,,39.27891,-7.428175
16862,1113,Sao Bento Ameixial - X,,38.836435,-7.659398
17337,8431,Portalegre Escola,,39.284575,-7.42622
16863,1114,Sao Bento Ameixial,,38.845318,-7.650695
17338,8432,Portalegre Carvalhinhas,,39.287113,-7.424832
16942,1343,Monte Carvalho,,39.326398,-7.415627
16944,1345,Alvarroes,,39.357683,-7.406268
17228,8281,S Bento Ameixial Cemiterio,,38.846977,-7.643897
17297,8388,Portalegre Feira,,39.273207,-7.423687
17354,8460,Reveladas X,,39.346147,-7.407508
17353,8459,Alvarroes Est Marvao,,39.363535,-7.403912
17351,8457,Fabrica Gasosas,,39.385475,-7.398847
16932,1330,Frazoa,,39.283705,-7.416993
17227,8280,Monte Forcinho,,38.850815,-7.630647
16956,1365,Jardim,,39.395333,-7.390542
17203,8233,Fonte Nova,,38.861158,-7.618885
17352,8458,Rasa X,,39.366057,-7.390728
16947,1353,Portagem - X,,39.37838,-7.388345
16945,1346,Sao Salvador,,39.373987,-7.388728
17296,8387,Herdade da Cabaca,,39.260495,-7.41153
16957,1366,Marvao - X,,39.403122,-7.383482
16933,1331,Reguengo - X P Basta,,39.281087,-7.405028
16851,874,Portagem,,39.382745,-7.384322
17062,1526,Antas,,38.850707,-7.620015
17111,1652,Fonte Imperador - X,,38.841588,-7.626927
16884,1258,Alto Costa,,39.136642,-7.44945
16847,862,Marvao,,39.396282,-7.377685
16914,1293,Monte Torre Palma,,39.076895,-7.471243
16962,1373,Beira - X,,39.447315,-7.371417
17374,8480,Pisao Novo,,39.361138,-7.381133
16977,1397,Rasa,,39.354705,-7.381245
17372,8478,Beira Rest Nicau,,39.444885,-7.36932
16948,1355,Aguas Partidas,,39.38328,-7.375518
16963,1374,Beira Est,,39.449422,-7.3682
16958,1368,Abegoa,,39.399927,-7.370697
17371,8477,Montes Beira,,39.439698,-7.365892
16961,1372,Barretos,,39.433777,-7.362882
16934,1332,Cruz Mos,,39.27523,-7.388532
17366,8472,Sao Pedro,,39.402537,-7.364023
16907,1285,Urra - X,,39.241932,-7.395917
17367,8473,Casa Sao Pedro,,39.40476,-7.36071
17370,8476,Vales,,39.428775,-7.357143
16913,1292,Monte Torre Figueira,,39.068117,-7.457508
16883,1257,Assumar  - X,,39.103115,-7.438212
16906,1284,Santiago - X,,39.236082,-7.389493
16960,1371,Ranginha,,39.424353,-7.352842
16959,1369,Santo Antonio Areias - X,,39.411873,-7.35309
17369,8475,S Antonio Areias Rest Poejo,,39.414342,-7.351317
17202,8232,Estremoz Escola,,38.848562,-7.586797
16848,864,Santo Antonio Areias,,39.415815,-7.348967
17336,8430,Quinta Queijeirinha,,39.267717,-7.374752
17110,1645,Fonte Souto,,39.393282,-7.350883
17373,8479,S Antonio Areias Viv Luzia,,39.41147,-7.348208
17368,8474,S Antonio Areias Praca Touros,,39.413222,-7.347798
16949,1356,Ponte Velha,,39.383338,-7.350622
16881,1250,Veiros,,38.953477,-7.506447
16946,1348,Porto Espada,,39.353298,-7.351977
16838,843,Estremoz,,38.843898,-7.582225
16935,1333,Paiva Tavares,,39.265338,-7.369105
17225,8275,Estremoz Av S Antonio,,38.83969,-7.581952
17109,1644,Estrada Nova,,39.355055,-7.346812
16882,1256,Monforte,,39.052445,-7.438788
17208,8239,Monforte Mercado,,39.052575,-7.437565
17209,8240,Monforte Panificadora,,39.055195,-7.435778
16950,1357,Posto Guarda Fiscal,,39.36389,-7.333467
16931,1325,Assumar,,39.14121,-7.393262
17335,8429,Fontainhas,,39.253485,-7.354055
16951,1359,Galegos,,39.368533,-7.325283
16936,1334,Porto Boga,,39.24659,-7.350053
17219,8250,Mamporcao Centro Povoacao,,38.849578,-7.548987
16905,1283,Ponte Azinhal,,39.19563,-7.362718
17218,8249,Mamporcao,,38.85134,-7.544092
17375,8481,Pitaranha,,39.363625,-7.318448
17092,1587,Monte Janela,,39.023667,-7.431063
17334,8428,Quintas Alegrete,,39.23888,-7.339662
17112,1673,Marvao Fronteira - X,,39.356103,-7.313858
17065,1537,Marvao Fronteira,,39.352255,-7.307212
17217,8248,Espinheiro X,,38.857927,-7.515122
16937,1335,Alegrete - X,,39.235275,-7.326
16878,1243,Espinheiro,,38.851415,-7.517075
16939,1337,Alegrete,,39.240292,-7.32206
17216,8247,Estalagem da Rapousa,,38.859358,-7.508173
17058,1520,Venda Ferrador,,38.86623,-7.499573
17091,1586,Prazeres,,38.984347,-7.421143
16873,1229,Arcos - 2 X,,38.826462,-7.522232
17226,8276,Arcos Escola Primaria,,38.833605,-7.514998
16872,1228,Arcos,,38.83535,-7.511522
17215,8246,Monte Silva,,38.87288,-7.480273
17229,8286,Arcos Parque Desportivo,,38.831972,-7.506743
16938,1336,Vale Cavalos,,39.227008,-7.305228
16904,1282,Casa Cant Portalegre,,39.158358,-7.319018
16877,1242,Orada,,38.873532,-7.466687
16871,1227,Arcos - 1 X,,38.822805,-7.50042
17056,1515,Besteiros - X,,39.222615,-7.294453
17090,1585,Monte Outeiro,,38.956913,-7.408085
16880,1245,Santo Aleixo,,38.91972,-7.417187
17108,1634,Nora - X,,38.818908,-7.487107
17333,8426,Mosteiros Bairro Novo,,39.193893,-7.286837
17055,1514,Mosteiros,,39.190658,-7.285547
17049,1496,Ribeira Canis,,39.204473,-7.280295
16879,1244,Serra D Aire,,38.889043,-7.41128
17048,1495,Monte Feiteirona,,39.18971,-7.266805
17332,8425,Montes Placa Parque Natural,,39.189752,-7.264113
17280,8369,Arronches Rua D E Portel,,39.120808,-7.286577
17295,8386,Arronches Piscinas,,39.118063,-7.28607
16897,1275,Arronches,,39.123518,-7.283115
17279,8368,Arronches Bairro Novo Rua A,,39.121485,-7.280025
17084,1576,Borba - X,,38.813413,-7.448772
16837,842,Borba,,38.805747,-7.453298
17054,1513,Parra X,,39.191023,-7.232613
16903,1281,Monte Baldio - X,,39.065228,-7.27552
17107,1633,Albufeira Borba,,38.826877,-7.411468
17169,8070,Barroca,,38.838612,-7.398862
16864,1117,Alto Gaiao,,38.841417,-7.39207
16902,1280,Ponte Algale (Arron),,39.055242,-7.269752
17170,8071,Vila Vicosa Lidl,,38.786037,-7.424293
17171,8072,Vila Vicosa Palacio,,38.781815,-7.418417
16896,1274,Monte Rasquilha,,39.10229,-7.234095
17047,1494,Lagar,,39.17493,-7.206133
17172,8073,Vila Vicosa Castelo,,38.779355,-7.416113
16911,1289,Vila Fernando,,38.91753,-7.320575
16836,841,Vila Viçosa,,38.776797,-7.416488
16912,1290,Barbacena,,38.959498,-7.295187
17283,8372,Vila Fernando Bairro Novo,,38.913288,-7.32006
17285,8374,Vila Fernando Est Elvas,,38.914365,-7.318067
16865,1118,Terrugem - 2 X,,38.846887,-7.357632
17331,8424,Santinha,,39.170937,-7.197128
17294,8385,Santa Eulalia Cp,,39.015583,-7.256332
16895,1273,Monte Sancha,,39.096553,-7.219978
16866,1120,Terrugem - 1 X,,38.848308,-7.346387
17168,8069,Terrugem 1 Parag,,38.846902,-7.346888
16929,1321,Esperança,,39.158022,-7.192377
16845,860,Terrugem,,38.844818,-7.347887
17282,8371,Santa Eulalia Centro Convivio,,39.009253,-7.251533
17119,1695,Terrugem (Cemiterio),,38.840203,-7.346968
17281,8370,Santa Eulalia Largo Jose Picao,,39.005978,-7.250335
16901,1279,Santa Eulalia,,39.005027,-7.247773
16894,1272,Monte Revelhos,,39.090998,-7.206268
17057,1518,Hortas Baixo,,39.154295,-7.167187
16893,1271,Forno Cal,,39.084922,-7.191277
16910,1288,Vila Boim - X,,38.899492,-7.27114
17293,8384,S Vicente Monte,,38.970698,-7.229217
17167,8068,Vila Boim Rua Elvas,,38.859382,-7.28117
17284,8373,Vila Boim Escola,,38.86365,-7.274988
16833,835,Vila Boim,,38.861868,-7.275872
17166,8067,Vila Boim Centro de Saude,,38.862873,-7.270625
16900,1278,Sao Vicente,,38.95444,-7.213118
16909,1287,Menino Ouro,,38.889185,-7.24142
16867,1122,Sao Lourenço - X,,38.863657,-7.252652
17165,8066,Restaurante Retiro Amigos,,38.864165,-7.235792
17164,8065,Restaurante Carrascal,,38.865202,-7.229045
16908,1286,Calçadinha,,38.882507,-7.210725
16892,1270,Degolados,,39.061728,-7.121595
17163,8064,Varche Hotel,,38.867027,-7.217142
16899,1277,Alcobaça,,38.919825,-7.181808
16868,1123,Varche,,38.867235,-7.209365
17162,8063,Varche Cruzamento 1,,38.870163,-7.202653
16898,1276,Vedor,,38.897458,-7.176437
17286,8375,Aqueduto,,38.878863,-7.184497
17291,8382,Elvas Belho,,38.882538,-7.170618
17292,8383,Elvas Rui de Melo,,38.886117,-7.167092
17287,8376,Elvas Bombas,,38.877502,-7.171168
17288,8377,Elvas Tribunal,,38.876245,-7.169452
16890,1266,Casa Cant. C.Maior,,38.958357,-7.123938
16889,1265,Amimoas,,38.93357,-7.13525
16888,1264,Ponte Espadas,,38.909508,-7.146875
16891,1267,Ponte Rio Caia,,38.98169,-7.109803
17289,8378,Elvas Hospital,,38.875763,-7.163907
17290,8379,Elvas Porta Olivenca,,38.87653,-7.161858
16815,801,Elvas,,38.874955,-7.160762
17277,8366,Elvas Zona Industrial,,38.892118,-7.150105
17276,8365,Elvas Epral,,38.888245,-7.151685
17275,8364,Elvas Escola Preparatoria,,38.8858,-7.15269
16869,1132,Elvas Est Cp,,38.895058,-7.142155
16876,1236,Bairro das Pias,,38.877808,-7.144933
17278,8367,Campo Maior Ecomarche,,39.015563,-7.072992
16875,1235,Cruzt E.N.4,,38.888264,-7.130917
16853,887,Campo Maior,,39.012948,-7.063112
17384,8951,Ouguela,,39.07975,-7.031222